국문역명,영문역명,전산역명,전산약어,XROIS역코드,KROIS역코드,역키로정,매표단말코드,주소,노선,위도,경도,폐역여부
1동대,Dongdaemun (Seoul Metro 1),1동대,1동대,3900741,900046,900046,,서울특별시 종로구 종로 지하 302,서울 지하철 1호선,37.57170678235766,127.0107962552198,아니오
1양원,Yangwon (Jungang Line),1양원,1양원,3900117,020063,020063,,서울특별시 중랑구 송림길 147,중앙선,37.6065544663506,127.107921347523,아니오
1양정,Yangjeong (Jungang Line),1양정,1양정,3900121,020149,020149,,경기도 남양주시 경강로 237,중앙선,37.6040108572137,127.194607068387,아니오
1종로3가,Jongro 3(sam)-ga (Seoul Metro 1),1종로3가,1종로,3900739,900029,900029,,서울특별시 종로구 종로 지하 129,서울 지하철 1호선,37.570426166069,126.992029489692,아니오
1지청량리,Cheongnyangni (Seoul Metro 1),1지청량리,1지청,3900745,900078,900078,,서울특별시 동대문구 왕산로 지하 205,서울 지하철 1호선,37.58004651909485,127.04472100931218,아니오
1평택지제,PyeongtaekJije,1평택지제,평지제,3900056,010713,010713,,경기도 평택시 경기대로 777,경부선,37.0188066765225,127.070444142624,아니오
2교대,Seoul Nat't Univ. of Edu. (Seoul Metro 2),2교대,2교대,3900762,910198,910198,,서울특별시 서초구 서초대로 294,서울 지하철 2호선,37.4935774354341,127.014155713304,아니오
2동운동장,Dongdaemun History & Culture Park (Seoul Metro 2),2동운동장,2동운,3900787,910487,910487,,서울특별시 중구 을지로 지하 279,서울 지하철 2호선,37.565589505457,127.009131489332,아니오
2봉천,Bongcheon (Seoul Metro 2),2봉천,2봉천,3900768,910275,910275,,서울특별시 관악구 남부순환로 지하 1721,서울 지하철 2호선,37.4825560782476,126.941495530723,아니오
2사당,Sadang (Seoul Metro 2),2사당,2사당,3900765,910238,910238,,서울특별시 동작구 동작대로 지하 3,서울 지하철 2호선,37.4768630448883,126.981595338179,아니오
2삼성,Samseong (Seoul Metro 2),2삼성,2삼성,3900758,910153,910153,,서울특별시 강남구 테헤란로 지하 538,서울 지하철 2호선,37.5088617483802,127.063072785896,아니오
2선릉,Seolleung (Seoul Metro 2),2선릉,2선릉,3900759,910166,910166,,서울특별시 강남구 테헤란로 지하 340,서울 지하철 2호선,37.5045024847264,127.048942153468,아니오
2시청,Seoul City Hall (Seoul Metro 2),2시청,2시청,3900783,910456,910456,,서울특별시 중구 서소문로 지하 127,서울 지하철 2호선,37.5635797730057,126.975389446475,아니오
2신도림,Sindorim (Seoul Metro 2),2신도림,2신도,3900773,910344,910344,,서울특별시 구로구 새말로 지하 117-21,서울 지하철 2호선,37.5087696730023,126.891080172222,아니오
2신림,Sillim (Seoul Metro 2),2신림,2신림,3900769,910286,910286,,서울특별시 관악구 남부순환로 지하 1614,서울 지하철 2호선,37.4842150540518,126.9298017842,아니오
2신설,Sinseoldong (Seoul Metro 2),2신설,2신설,3900747,910000,910000,,서울특별시 동대문구 왕산로 지하 1,서울 지하철 2호선,37.5753201746569,127.024702167484,아니오
2신촌,Sinchon (Seoul Metro 2),2신촌,2신촌,3900779,910420,910420,,서울특별시 마포구 신촌로 지하 90,서울 지하철 2호선,37.5554420163312,126.936119063325,아니오
2영등포구,Yeongdeungpo Office (Seoul Metro 2),2영등포구,2영등,3900775,910365,910365,,서울특별시 영등포구 당산로 지하 121,서울 지하철 2호선,37.5256995484828,126.896626652361,아니오
2왕십리,Wangsimni (Seoul Metro 2),2왕십리,2왕십,3900790,910513,910513,,서울특별시 성동구 왕십리로 지하 300,서울 지하철 2호선,37.5612222038164,127.036655740207,아니오
2을지로3,Uljiro (Metro 3),2을지로3,2을지,3900785,910471,910471,,서울특별시 중구 을지로 지하 106,서울 지하철 2호선,37.5662657010295,126.990308280223,아니오
2홍대입구,Hongik Univ. (Seoul Metro 2),2홍대입구,2홍대,3900778,910407,910407,,서울특별시 마포구 양화로 지하 160,서울 지하철 2호선,37.556890600335,126.923674531667,아니오
3대곡,Daegok (Seoul Metro 3),3대곡,3대곡,3900498,240114,240114,,경기도 고양시 덕양구 대주로107번길 71-81,일산선,37.6318209287768,126.810603088577,아니오
3도곡,Dogok (Seoul Metro 3),3도곡,3도곡,3900821,930298,930298,,서울특별시 강남구 남부순환로 지하 2814,서울 지하철 3호선,37.4908642263312,127.055323558596,아니오
3수서,Suseo (Seoul Metro 3),3수서,3수서,3900826,930352,930352,,서울특별시 강남구 광평로 지하 270,서울 지하철 3호선,37.4873898885833,127.101859891647,아니오
3옥수,Oksu (Seoul Metro 3),3옥수,3옥수,3900812,930177,930177,,서울특별시 성동구 동호로 21,서울 지하철 3호선,37.5410463989414,127.018329698976,아니오
3을지로3,Uljiro 3(sam)-ga (Seoul Metro 3),3을지로3,3을지,3900807,930138,930138,,서울특별시 중구 을지로 지하 106,서울 지하철 3호선,37.5662657010295,126.990308280223,아니오
3종로3가,Jongro 3(sam)-ga (Seoul Metro 3),3종로3가,3종로,3900806,930132,930132,,서울특별시 종로구 돈화문로 지하 30,서울 지하철 3호선,37.5712663798114,126.992233981855,아니오
3지축,Jichuk (Ilsan Line),3지축,3지축,3900796,930000,930000,,경기도 고양시 덕양구 삼송로 300,서울 지하철 3호선,37.6508567749334,126.905825822799,아니오
3충무로,Chungmu-ro (Seoul Metro 3),3충무로,3충무,3900808,930145,930145,,서울특별시 중구 동호로 지하 256,서울 지하철 3호선,37.5590303937038,127.005460095279,아니오
4동대,Dongdaemun (Seoul Metro 4),4동대,4동대,3900842,940154,940154,,서울특별시 종로구 율곡로 지하 308,서울 지하철 4호선,37.570855465274306,127.00935004488693,아니오
4동운동장,Dongdaemun History&Culture Park (Seoul Metro 4),4동운동장,4동운,3900843,940161,940161,,서울특별시 중구 장충단로 지하 230,서울 지하철 4호선,37.565079340272,127.007550991029,아니오
4서울,Seoul (Seoul Metro 4),4서울,4서울,3900847,940197,940197,,서울특별시 용산구 한강대로 지하 392,서울 지하철 4호선,37.55302644718279,126.97264122576684,아니오
4이촌,Ichon (Seoul Metro 4),4이촌,4이촌,3900851,940239,940239,,서울특별시 용산구 서빙고로 지하 83,서울 지하철 4호선,37.52238834969403,126.97451329708223,아니오
4창동,Changdong (Seoul Metro 4),4창동,4창동,3900833,940036,940036,,서울특별시 도봉구 마들로11길 77,서울 지하철 4호선,37.6532177608371,127.047715364093,아니오
4충무로,Chungmu-ro (Seoul Metro 4),4충무로,4충무,3900844,940174,940174,,서울특별시 중구 퇴계로 지하 199,서울 지하철 4호선,37.56133668210595,126.99444840982291,아니오
4하청량리,,4하청량리,4하청,3900746,900082,900082,,,서울 지하철 1호선,,,예
G대곡,Daegok (GTX-A),G대곡,G대곡,3901163,G10130,G10130,,경기도 고양시 덕양구 대주로 103-60,GTX-A,37.63240340278529,126.81044332517462,아니오
G삼성,,G삼성,G삼성,3901175,G10427,G10427,,,GTX-A,,,아니오
G서울,Seoul (GTX-A),G서울,G서울,3901165,G10323,G10323,,서울특별시 중구 봉래동2가 166-1,GTX-A,37.555492928452345,126.97264032408117,아니오
G수서,Suseo (GTX-A),G수서,G수서,3901130,H40000,H40000,,서울특별시 강남구 광평로 지하 270,GTX-A,37.48668711158628,127.10248057259665,아니오
G연신내,Yeonsinnae (GTX-A),G연신내,G연신내,3901164,G10229,G10229,,서울특별시 은평구 연서로 231,GTX-A,37.6189330884497,126.92063488602389,아니오
G운정중앙,UnjeongJungang (GTX-A),G운정중앙,G운정중앙,3901166,G10000,G10000,,경기도 파주시 운정중앙로 60,GTX-A,37.716141436346525,126.72813887880595,아니오
G운정차량,Unjeong Depot (GTX-A),G운정차량,G운정차,3901167,G10037,G20037,,경기도 파주시 거문이길 196-76,GTX-A,37.74127087,126.70954164,아니오
G운정차량2,Unjeong Depot (GTX-A),G운정차량,G운차,3901176,G10037,G20037,,경기도 파주시 거문이길 196-76,GTX-A,37.74127087,126.70954164,아니오
G창릉,Changneung (GTX-A),G창릉,G창릉,3901174,G10192,G10192,,경기도 고양시 덕양구 용두동 792-3,GTX-A,37.622277294192145,126.8798326704724,아니오
G킨텍스,KINTEX (GTX-A),G킨텍스,G킨텍스,3901162,G10061,G10061,,경기도 고양시 일산서구 킨텍스로 지하 217,GTX-A,37.66524717527603,126.74822137174101,아니오
SR본사,SR Headquarters,SR본사,SR본사,3901054,000100,000100,,서울특별시 강남구 광평로 56길 12 희림빌딩,,,,아니오
SR분기,SR HSR Junction,SR분기,SR분,3901042,H30611,H30611,,경기도 평택시 팽성읍 남산리 11-28,",경부고속선,수서평택고속",36.9521037863323,127.070498249617,아니오
S구성,SR Guseong,S구성,S구성,3901056,H30212,H30212,,경기도 용인시 기흥구 보정동 961-2,수서평택고속선,37.299133643934844,127.10386944840738,아니오
S동탄,SR Dongtan,S동탄,S동탄,3901044,H30326,H30326,0552,경기도 화성시 동탄역로 151,수서평택고속선,37.1998614581354,127.095491333984,아니오
S성남,SR Seongnam,S성남,S성남,3901055,H30102,H30102,,경기도 성남시 분당구 이매동 153-1,수서평택고속선,37.395009863784075,127.1205235022581,아니오
S수서,SR Suseo,S수서,S수서,3901043,H30000,H30000,0551,서울특별시 강남구 밤고개로 99,수서평택고속선,37.4854182124863,127.104560309687,아니오
가남,Ganam,가남,가남,3901114,280090,280090,0530,경기도 여주시 가남읍 태평리 516,중부내륙선,37.1978014613618,127.535137507849,아니오
가능,Ganeung,가능,가능,3900403,130324,130324,0406,경기도 의정부시 평화로 633,경원선,37.7483677613826,127.044220358908,아니오
가락시장,Garak Market,가락시장,가락시,3900827,930366,930366,,서울특별시 송파구 송파대로 지하 257,서울 지하철 3호선,37.4927435901875,127.118486044379,아니오
가산디지털단지,Gasan Digital Complex,가산디지털,가산디,3900034,010141,010141,0825,서울특별시 금천구 벚꽃로 309,경부선,37.4815957731159,126.882559142029,아니오
가수원,Gasuwon,가수원,가수원,3900196,030118,030118,0342,대전광역시 서구 벌곡로 1324,호남선,36.3007415466962,127.35665385024454,아니오
가야,Gaya,가야,가야,3900677,840051,840051,0476,부산광역시 부산진구 백양대로 91,가야선,35.16023677670314,129.03937245535613,아니오
가야기관,,가야기관,가야기,3900875,A40051,A40051,,부산광역시 부산진구 백양대로 91,,35.1617411149279,129.042723311411,아니오
가야차량,Gaya Depot,가야차량,가야차량,3900980,X00011,X00011,,부산광역시 부산진구 백양대로 99,,35.1602587471033,129.037251253387,아니오
가은,Gaeun,가은,가은,3900536,350119,350119,0708,경상북도 문경시 가은읍 대야로 2441,가은선,36.649311605383026,128.061073770129,예
가좌,Gajwa,가좌,가좌,3900356,110058,110058,0386,서울특별시 서대문구 수색로 27,경의선,37.568748364356686,126.91489265985746,아니오
가천,Gacheon,가천,가천,3900098,013343,013334,0735,대구광역시 수성구 천을로23길 259,",경부선,대구",35.85357082742016,128.69292404117735,아니오
가천대,Gachon Univ.,가천대,가천대,3900481,230180,230189,0869,경기도 성남시 수정구 성남대로 1332,분당선,37.4485691967556,127.126705718319,아니오
가평,Gapyeong,가평,가평,3900431,140576,140518,0150,경기도 가평군 가평읍 문화로 13-42,경춘선,37.81462285011938,127.51071855508795,아니오
각계,Gakgye,각계,각계,3900079,012054,012046,0309,충청북도 영동군 심천면 각계리 511-2,경부선,36.20813090127537,127.72541135187103,아니오
간석,Ganseok,간석,간석,3900311,060219,060193,0814,인천광역시 남동구 석정로 522-14,경인선,37.4646881559771,126.693451459998,아니오
간치,Ganchi,간치,간치,3900342,081134,081053,0289,충청남도 보령시 주산면 재배길 41,장항선,36.21109877026996,126.61947714153135,예
간현,Ganhyeon,간현,간현,3900139,020954,020898,0172,강원특별자치도 원주시 지정면 간현로 163,중앙선,37.3632027822937,127.837023186404,예
갈매,Galmae,갈매,갈매,3900922,140047,140047,,경기도 구리시 경춘북로 229,경춘선,37.6339776455427,127.11470786395,아니오
갈촌,Galchon,갈촌,갈촌,3900696,880855,880931,0481,경상남도 진주시 문산읍 문산로 666,경전선,35.1458765855985,128.211412908756,예
감곡,Gamgok,감곡,감곡,3900215,031124,031124,0352,전북특별자치도 정읍시 감곡면 호남철로 501,호남선,35.73334820554246,126.89736228098465,아니오
감곡장호원,Gamgok-Janghowon,감곡장호원,감곡장,3901115,280212,280212,0531,충청북도 음성군 감곡면 왕장리 312-1,중부내륙선,37.12711113680773,127.63568361229662,아니오
감호,Gamho,감호,감호,3900937,730111,730111,,,동해북부선,,,아니오
갑현,Gaphyeon,갑현,갑현,3900183,023229,023095,0336,경상북도 영천시 신녕면 장수로 2092,중앙선,36.0706798605803,128.76300973088684,예
강경,Ganggyeong,강경,강경,3900206,030607,030607,0028,충청남도 논산시 강경읍 대흥로 1,호남선,36.15499852862622,127.01763589599955,아니오
강구,Ganggu,강구,강구,3901067,8B0671,751817,0522,경상북도 영덕군 강구면 화전리 111-1,동해선,36.35253129286863,129.37232185449537,아니오
강남,Gangnam,강남,강남,3900761,910186,910186,,서울특별시 강남구 강남대로 지하 396,서울 지하철 2호선,37.4981641190125,127.028307691072,아니오
강남구청,Gangnam-gu Office,강남구청,강남구,3901000,230053,230053,,서울특별시 강남구 학동로 지하 346,분당선,37.5166669464332,127.0414933237919,아니오
강릉,Gangneung,강릉,강릉,3900587,601936,601927,0115,강원특별자치도 강릉시 용지로 176,영동선,37.764435972254105,128.8993609149824,아니오
강릉기지,Gangneung Depot,강릉기지,강릉기,3901070,1V0014,1V0014,,,강릉기지선,,,아니오
강릉차량사업소,Gangneung Depot,강릉차량사업소,강릉차,3900943,A01936,A01936,,강원특별자치도 강릉시 구정면 덕현리 605-46,,37.7068415933301,128.923686400262,아니오
강릉차분기,Gangneung B.C. Junction,강릉차분기,강릉분,3901069,N11168,N11154,,강원특별자치도 강릉시 운산동 산 268-2,",원주강릉선,강릉기지",37.72523224369101,128.9292475736134,아니오
강매,Gangmae,강매,강매,3901023,110140,110140,,경기도 고양시 덕양구 소원로 202,경의선,37.61229363203946,126.84450332074091,아니오
강변,Gangbyeon,강변,강변,3900753,910091,910091,,서울특별시 광진구 강변역로 53,서울 지하철 2호선,37.5350473996577,127.094688818651,아니오
강진,Gangjin,강진,강진,3901170,470446,470347,0566,전라남도 강진군 강진읍 목리 125-11,목포보성선,34.62848038685036,126.77288723427553,아니오
강촌,Gangchon,강촌,강촌,3900434,140701,140647,0151,강원특별자치도 춘천시 남산면 강촌로 150,경춘선,37.805806181597,127.634125861707,아니오
개봉,Gaebong,개봉,개봉,3900299,060050,060024,0802,서울특별시 구로구 경인로40길 47,경인선,37.4945213803078,126.859102354987,아니오
개양,Gaeyang,개양,개양,3900698,880967,881043,0482,경상남도 진주시 가좌동 140-12,경전선,35.1541698259568,128.115298622514,예
개운,Gaeun,개운,개운,3900268,041480,041344,,전라남도 순천시 서면 구만리 447,전라선,35.0269349635331,127.4533135745644,아니오
개운포,Gaeunpo,개운포,개운포,3900638,750678,750635,0457,울산광역시 남구 산업로 131,동해선,35.507900833168264,129.32115768678236,아니오
개정,Gaejeong,개정,개정,3900531,320177,320035,0431,전북특별자치도 군산시 개정동 669,군산화물선,35.96165516528072,126.768430841445,아니오
개태사,Gaetaesa,개태사,개태사,3900201,030347,030347,0219,충청남도 논산시 연산면 천호3길 3,호남선,36.24274638384558,127.22704433492578,아니오
개포,Gaepo,개포,개포,3900516,300733,300733,0160,경상북도 예천군 개포면 방터길 7-11,경북선,36.62659944083583,128.32718000611789,아니오
개포동,Gaepo-dong,개포동,개포동,3900477,230088,230097,0898,서울특별시 강남구 개포로 지하 420,분당선,37.48915251543679,127.06615351056924,아니오
거제,Geoje,거제,거제,3900623,750091,750079,0452,부산광역시 연제구 법원남로9번길 17,동해선,35.189525273541,129.074247133731,아니오
거제해맞이,Geojehaemaji,거제해맞이,거제해,3900622,750078,750069,0216,부산광역시 연제구 거제대로 123,동해선,35.18104562081873,129.0689270220018,아니오
거촌,Geochon,거촌,거촌,3900553,600202,600202,0433,경상북도 봉화군 봉성면 도장밭길 44-41,영동선,36.890152233977474,128.7729154073601,아니오
건대입구,Konkuk Univ.,건대입구,건대입,3900751,910066,910066,,서울특별시 광진구 아차산로 243,서울 지하철 2호선,37.5404192764847,127.069173143828,아니오
건천,Geoncheon,건천,건천,3900191,023660,023526,0184,경상북도 경주시 건천읍 내서로 1038-18,중앙선,35.853889522326426,129.09722084433585,예
검암,Geomam,검암,검암,3900932,C10325,C10325,0918,인천광역시 서구 검바위로 26,공항철도,37.569195170023534,126.67364755400038,아니오
경기광주,GyeonggiGwangju,경기광주,경광주,3900962,250141,250133,,경기도 광주시 광주역로 10,경강선,37.3989795703743,127.253280981554,아니오
경마공원,Seoul Racecourse Park,경마공원,경마공,3900471,220114,220114,0865,경기도 과천시 경마공원대로 지하 105,과천선,37.4439580322425,127.00784256222474,아니오
경복궁,Gyeongbokgung,경복궁,경복궁,3900804,930111,930111,,서울특별시 종로구 사직로 지하 130,서울 지하철 3호선,37.5753680181449,126.97332209431,아니오
경산,Gyeongsan,경산,경산,3900099,013395,013386,0024,경상북도 경산시 중앙로 1,경부선,35.8193908122978,128.727507637421,아니오
경주,Gyeongju,경주,경주,3900895,H13421,H13165,0508,경상북도 경주시 건천읍 경주역로 80,",경부고속선,동해",35.79841026986777,129.13891624597815,아니오
경주기관,,경주기관,경주기,3900876,A51123,A51123,,경상북도 경주시 양정로 143,,35.8465954518179,129.22005874091,아니오
경주열분,,경주열분,경주열,3900022,000054,000054,,,,,,아니오
경찰병원,National Police Hospital,경찰병원,경찰병,3900828,930374,930374,,서울특별시 송파구 중대로 지하 149,서울 지하철 3호선,37.495601945157,127.124067077835,아니오
경화,Gyeonghwa,경화,경화,3900665,810169,810169,0468,경상남도 창원시 진해구 진해대로 649,진해선,35.159268819077774,128.68663306186195,아니오
계룡,Gyeryong,계룡,계룡,3900199,030254,030254,0218,충청남도 계룡시 두마면 팥거리로 95,호남선,36.27252209632191,127.26622783321643,아니오
계양,Gyeyang,계양,계양,3900931,C10270,C10270,0917,인천광역시 계양구 다남로 24,공항철도,37.57178446428775,126.73631947402352,아니오
고래불,Goraebul,고래불,고래불,3901149,752102,752102,0610,경상북도 영덕군 병곡면 병곡리 494,동해선,36.602774098907204,129.4062523116802,아니오
고막원,Gomagwon,고막원,고막원,3900234,032131,032121,0240,전라남도 나주시 다시면 고막원길 69,호남선,35.02441250624824,126.60789510589515,아니오
고명,Gomyeong,고명,고명,3900154,021586,021485,0330,충청북도 제천시 단양로10길 20-34,중앙선,37.112456921271736,128.24305083550777,아니오
고모,Gomo,고모,고모,3900097,013327,013318,0315,대구광역시 수성구 고모로 208,경부선,35.85897617911358,128.67857914216157,아니오
고모기지,Gomo HSR B.C.,고모기지,고모기,3900905,HL0017,HL0017,,대구광역시 수성구 가천동 312-4,고모기지선,35.85345606504067,128.70025201803776,아니오
고모분기,Gomo HSR Junction,고모분기,고모분,3900903,H12997,H12805,,대구광역시 수성구 가천동 256,경부고속선,35.854132572667126,128.71541720251125,아니오
고사리,Gosa-ri,고사리,고사리,3900573,601169,601160,0438,강원특별자치도 삼척시 도계읍 늑구2길 68,영동선,37.2666487320489,129.06101611517104,아니오
고색,Gosaek,고색,고색,3901089,101027,101027,,경기도 수원시 권선구 고색동 377-2,수인선,37.2498585643293,126.980833376121,아니오
고속터미널,Seoul Exp. Bus Terminal,고속터미널,고속터,3900816,930234,930234,,서울특별시 서초구 신반포로 지하 188,서울 지하철 3호선,37.5046474981236,127.004442272027,아니오
고양기지,Goyang HSR B.C.,고양기지,고양기,3900889,HE0018,HE0018,0593,경기도 고양시 덕양구 강매동 615-11,고양기지선,37.6094941987237,126.833616027672,아니오
고잔,Gojan,고잔,고잔,3900459,210162,210162,0856,경기도 안산시 단원구 중앙대로 784,안산선,37.316840108350576,126.82304185033118,아니오
고한,Gohan,고한,고한,3900613,650828,650798,0122,강원특별자치도 정선군 고한읍 고한로 166,태백선,37.19967878828782,128.8539110489875,아니오
곡산,Goksan,곡산,곡산,3900364,110196,110199,0393,경기도 고양시 일산동구 경의로 160,경의선,37.6457598149107,126.80181198572777,아니오
곡성,Gokseong,곡성,곡성,3900263,041072,040971,0049,전라남도 곡성군 곡성읍 곡성로 920,전라선,35.28263870244555,127.3054549972086,아니오
곤지암,Gonjiam,곤지암,곤지암,3900964,250240,250232,,경기도 광주시 곤지암읍 곤지암천로 333,경강선,37.350462539945,127.346498073857,아니오
골약,Goryak,골약,골약,3900709,881638,881535,0487,전라남도 광양시 중군동 409-1,경전선,34.9598849083924,127.656469860342,예
공덕,Gongdeok,공덕,공덕,3901006,120025,120025,0913,서울특별시 마포구 양화로 188,용산선,37.5574102691966,126.926960989447,아니오
공덕공,Gongdeok,공덕공,공덕공,3901020,C10033,C10033,,서울특별시 마포구 마포대로 92,공항철도,37.54234324358029,126.95254057449343,아니오
공전,Gongjeon,공전,공전,3900296,051064,051064,0259,충청북도 제천시 봉양읍 의암로 698,충북선,37.10177584811752,128.07751524042973,아니오
공주,Gongju,공주,공주,3901026,H20438,H20438,0514,충청남도 공주시 이인면 새빛로 100,호남고속선,36.332313842712,127.096739140829,아니오
공항연결,AREX Junction,공항연결,공항연,3901016,C10129,C10122,,경기도 고양시 덕양구 현천동 124-9,공항철도,37.5938069742469,126.866654214944,아니오
공항화물청,ICN AIRP'T Cargo Terminal,공항화물청,공항화,3900934,C10554,C10554,0920,인천광역시 중구 공항동로135번길 86,공항철도,37.4590323543614,126.477438845484,아니오
과천,Gwacheon,과천,과천,3900469,220095,220095,0863,경기도 과천시 도서관길 36,과천선,37.43286223679791,126.99658774619952,아니오
과천청사,Government Complex Gwacheon,과천청사,과천청,3900468,220085,220085,0862,경기도 과천시 중앙로 지하 100,과천선,37.42654572628893,126.98989967353322,아니오
관악,Gwanak,관악,관악,3900038,010215,010215,0827,경기도 안양시 만안구 경수대로1273번길 46,경부선,37.41960443631676,126.90848695964058,아니오
관촌,Gwanchon,관촌,관촌,3900252,040496,040490,0370,전북특별자치도 임실군 관촌면 춘향로 3326-1,전라선,35.66286549942136,127.27624081778698,아니오
광곡,Gwanggok,광곡,광곡,3900719,882377,882260,0491,전라남도 보성군 노동면 광곡길 45,경전선,34.7964889343895,127.073004056598,아니오
광명,Gwangmyeong,광명,광명,3900883,H10219,H10028,0501,경기도 광명시 광명역로 21,경부고속선,37.4163773275379,126.884850790386,아니오
광명기지,Gwangmyeong HSR B.C.,광명기지,광명기,3900891,HH0017,HH0017,,경기도 광명시 소하동 700-32,광명기지선,37.4334695249544,126.896881374148,아니오
광양,Gwangyang,광양,광양,3900710,881708,881603,0068,전라남도 광양시 광양읍 해광로 800,",경전선,광양제철",34.95619003093953,127.58800969902599,아니오
광양항,Gwangyanghang,광양항,광양항,3900549,530027,530027,0715,전라남도 광양시 항만대로 755,광양항선,34.9263758335797,127.68101494283326,아니오
광운대,Kwangwoon Univ.,광운대,광운대,3900393,130182,130182,0145,서울특별시 노원구 석계로 98-2,",경원선,망우",37.623869806625066,127.0616793286853,아니오
광주,Gwangju,광주,광주,3900539,883012,380119,0042,광주광역시 북구 무등로 235,광주선,35.1660020214943,126.909081372972,아니오
광주기지,Gwangju HSR B.C.,광주기지,광주기,3901035,HS0054,HS0054,,광주광역시 광산구 고봉로230번길 26,광주기지선,35.18173584255553,126.79136187567842,아니오
광주선분기,Gwangju Line Junction,광주선분기,광주선,3900734,882985,882874,,광주광역시 광산구 신촌동 812-2,",경전선,광주",35.1448521903595,126.810055780771,아니오
광주송북연,Gwangju Songjeong North Connecting Line Junction,광주송북연,광북연,3901030,H21777,H21777,,광주광역시 광산구 산정동 117-8,호남고속선,35.1675464925764,126.799394537663,아니오
광주송정,Gwangjusongjeong,광주송정,광주송,3900229,031857,031857,0036,광주광역시 광산구 상무대로 201,",호남고속선,호남",35.138054284401775,126.79033770339477,아니오
광주열분,,광주열분,광주열,3900014,000033,000033,,,,,,아니오
광주차량사업소,Gwangju Depot,광주차량사업소,광주차,3900945,A83012,A83012,,광주광역시 북구 무등로 235,,35.16639374340235,126.90894646685037,아니오
광천,Gwangcheon,광천,광천,3900334,080749,080683,0082,충청남도 홍성군 광천읍 광천로273번길 85,장항선,36.50156295830176,126.62231898550476,아니오
괴동,Goedong,괴동,괴동,3900660,790056,790056,0692,경상북도 포항시 남구 대송로 208-20,괴동선,35.997486197108195,129.3772931691711,아니오
괴목,Goemok,괴목,괴목,3900267,041386,041262,0241,전라남도 순천시 황전면 순천로 1480,전라선,35.094682975415964,127.42684134164034,아니오
교대,Seoul Nat'l Univ. of Edu.,교대,교대,3900817,930250,930250,,서울특별시 서초구 서초대로 지하 294,서울 지하철 3호선,37.4935774354341,127.014155713304,아니오
구_서화성,Seohwaseong (old),구_서화성,구서화,3901132,X60000,X60000,,경기도 화성시 남양읍 문호리,구_서해선,37.24797503915698,126.78689293209229,아니오
구_용암,Yongam (old),구_용암,구_용암,3901095,7A0033,7A0033,,울산광역시 울주군 청량읍 용암리 산 36-5,,35.4761582913734,129.321851266759,아니오
구_울산신항,Ulsansinhang (old),구_울산신항,구_울산신,3901096,7A0055,7A0088,,울산광역시 남구 황성동 840-1,,35.4659824997191,129.371301472946,아니오
구_화성시,Hwaseong City Hall (old),구_화성시,구화성,3901133,X60073,X60073,,경기도 화성시 남양읍 신남리 91-1,구_서해선,37.18978718679465,126.82061041381226,아니오
구강매,Gangmae (old),구강매,구강매,3900360,110139,110139,0389,경기도 고양시 덕양구 행신동 491-3,경의선,37.6123687345004,126.841516006529,예
구경주,Gyeongju (old),구_경주,구_경주,3900647,751123,751097,0021,경상북도 경주시 원화로 266,",동해남부선,중앙",35.844449,129.218426,예
구대야,Daeya (old),구대야,구대야,3900351,320130,081425,0430,전북특별자치도 군산시 대야면 대야관통로 46-6,군산화물선,35.94324490154323,126.81072457219912,예
구례구,Guryegu,구례구,구례구,3900265,041285,041174,0050,전라남도 순천시 황전면 섬진강로 217,전라선,35.16366138118517,127.45172480334863,아니오
구로,Guro,구로,구로,3900032,010117,010117,0824,서울특별시 구로구 구로중앙로 174,경부선,37.50329193912055,126.8822459381895,아니오
구로경부분,Guro Gyeongbu Line Junction,구로경부분,구로부,3900033,010130,010130,,서울특별시 구로구 구로동 397-28,",경부선,구로삼각",37.4918362477532,126.879754475424,예
구로경인분,Guro Gyeongin Line Junction,구로경인분,구로인,3900297,060010,060010,,서울특별시 구로구 구로동 589-14,",경인선,구로삼각",37.4980528552305,126.87377549611229,예
구로공단,Guro Digital Complex (Seoul Metro 2),구로공단,구로공,3900771,910315,910315,,서울특별시 구로구 도림천로 477,서울 지하철 2호선,37.4853144101578,126.901494435579,아니오
구로열차소,,구로열차소,구로열,3900008,000013,000013,,,,,,아니오
구로차량,Guro Depot,구로차량,구로차,3900866,A10117,A10117,,서울특별시 구로구 구일로2길 2,,37.4875502535263,126.878663534859,아니오
구룡,Guryong,구룡,구룡,3900713,881965,881848,0490,전라남도 순천시 별량면 구룡리 563-10,경전선,34.8414322904037,127.416782573626,아니오
구룡역,Guryong (Bundang Line),구룡역,구룡역,3900476,230081,230090,,서울특별시 강남구 개포로 지하 403,분당선,37.487031928972115,127.05949746802771,아니오
구리,Guri,구리,구리,3900119,020095,020095,0513,경기도 구리시 건원대로34번길 32-29,중앙선,37.6033338322472,127.143611328845,아니오
구모량,Moryang (old),구모량,구모량,3900192,023699,023565,0340,경상북도 경주시 건천읍 내서로 1424-21,중앙선,35.827096194844884,129.12440886881868,예
구문경,Mungyeong(old),구_문경,구문경,3900530,310223,310223,0705,경상북도 문경시 문경읍 새재로 407,문경선,36.72958874279876,128.10640082116512,예
구미,Gumi,구미,구미,3900088,012775,012767,0013,경상북도 구미시 구미중앙로 76,경부선,36.12817315116362,128.3312950396249,아니오
구부조,Bujo (old),구부조,구부조,3900653,751354,751328,0464,경상북도 경주시 강동면 강동로 65-3,동해남부선,35.992025,129.275482,예
구삼산,Samsan (old),구삼산,구삼산,3900349,081360,081360,,충청남도 서천군 서천읍 삼산리 727-1,장항선,36.0646309441578,126.712034369894,예
구서경주,Seogyoeongju (old),구서경주,구서경,3900194,023821,023687,,경상북도 경주시 현곡면 용담로 198-5,중앙선,35.869319,129.200643,예
구성,Guseong,구성,구성,3900984,230356,230365,,경기도 용인시 기흥구 용구대로 2403,분당선,37.29897885533446,127.10569076026934,아니오
구안강,An-gang (old),구안강,구안강,3900651,751296,751270,0192,경상북도 경주시 안강읍 비화원로 15-1,동해남부선,35.988371,129.230937,예
구안동,Andong (old),구안동,구안동,3900172,022557,022423,0100,경상북도 안동시 경동로 684,중앙선,36.56245418016486,128.73370335574498,예
구안중,Anjung(old),구_안중,구안중,3901135,X60378,X60378,,경기도 평택시 안중읍 송담리 산 13-1,",서해선,평택",36.971379675534344,126.93875851160303,예
구웅천,Ungcheon (old),구웅천,구웅천,3900341,081098,081021,0084,충청남도 보령시 웅천읍 장터6길 1,장항선,36.234971087118375,126.6020665261782,예
구원주,Wonju (old),구원주,구원주,3900142,021082,020979,0092,강원특별자치도 원주시 평원로 158,중앙선,37.357646616189136,127.9448342980081,예
구의,Guui,구의,구의,3900752,910082,910082,,서울특별시 광진구 아차산로 384-1,서울 지하철 2호선,37.5371540973473,127.08617894671,아니오
구인주,Inju(old),구_인주,구인주,3901136,X60553,X60553,,충청남도 아산시 인주면 해암리 340-2,서해선,36.83841098205689,126.8813701088852,예
구일,Guil,구일,구일,3900298,060040,060014,0801,서울특별시 구로구 구일로 133,경인선,37.4963912949479,126.869920470332,아니오
구절리,Gujeol-ri,구절리,구절리,3900593,610459,610459,0203,강원특별자치도 정선군 여량면 노추산로 745,정선선,37.51691558521352,128.7272367653105,아니오
구파발,Gupabal,구파발,구파발,3900797,930015,930015,,서울특별시 은평구 진관2로 지하 15-25,서울 지하철 3호선,37.6368548011666,126.918753324784,아니오
구포,Gupo,구포,구포,3900111,014281,014252,0019,부산광역시 북구 구포만세길 82,경부선,35.20483255087201,128.99684115910074,아니오
구포항,Pohang (old),구포항,구포항,3900656,751458,751432,0058,경상북도 포항시 북구 용당로91번길 7,동해남부선,36.0357626265349,129.360010560715,예
구학,Guhak,구학,구학,3900150,021438,021335,0329,충청북도 제천시 봉양읍 제원로 340,중앙선,37.15736524722237,128.115860446349,예
구합덕,Hapdeok(old),구_합덕,구합덕,3901137,X60641,X60641,,충청남도 당진시 합덕읍 도리 16-5,서해선,36.7964296362175,126.79863797343813,예
구향남,Hyangnam(old),구_향남,구향남,3901134,X60187,X60187,,경기도 화성시 향남읍 평리 197-16,서해선,37.122955791989014,126.91280340565484,예
국수,Guksu,국수,국수,3900128,020430,020388,0323,경기도 양평군 양서면 국수역길 45,중앙선,37.516257278054674,127.3989442808167,아니오
군북,Gunbuk,군북,군북,3900690,880608,880646,0061,경상남도 함안군 군북면 의산삼일로 1992,경전선,35.2520708645581,128.351901670848,아니오
군사분계선,MDL,군사분계선,군분선,3900938,730061,730061,,,동해북부선,,,아니오
군산,Gunsan,군산,군산,3900348,081388,081340,0505,전북특별자치도 군산시 내흥2길 197,",장항선,군산화물",35.99925690077422,126.76039103765375,아니오
군산옥산,GunsanOksan,군산옥산,군산옥,3901106,440083,440083,,전북특별자치도 군산시 옥산면 당북리,",군산항선,옥구",35.943038765502465,126.73005229527318,아니오
군산항,Gunsanhang,군산항,군산항,3901107,440258,440258,,전북특별자치도 군산시 오식도동 839,군산항선,35.97269183784824,126.56514789663053,아니오
군산화물,Gunsanhwamul,군산화물,군산화,3900532,320231,320089,0432,전북특별자치도 군산시 구암3.1로 13,군산화물선,35.9807252627824,126.720945091185,예
군산화분기,Gunsanhwamul Junction,군산화분기,군산분,3900350,081459,081385,,전북특별자치도 군산시 개정면 통사리 566,장항선,35.94533882601572,126.79874687008076,예
군위,Gunwui,군위,군위,3901160,023073,023073,0548,대구광역시 군위군 의흥면 연계리 640-3,중앙선,36.16194615,128.74501514,아니오
군자기지,Gunja Depot,군자기지,군자기,3900859,1I0044,1I0044,,서울특별시 성동구 천호대로78길 58,군자기지선,37.5550352911194,127.055350110427,아니오
군포,Gunpo,군포,군포,3900042,010297,010297,0301,경기도 군포시 군포역1길 27,경부선,37.3540763538151,126.948485529358,아니오
굴봉산,Gulbongsan,굴봉산,굴봉산,3900432,140622,140565,0208,강원특별자치도 춘천시 남산면 서백길 192,경춘선,37.8321001935014,127.557660292231,아니오
극락강,Geungnakgang,극락강,극락강,3900538,883086,380045,0043,광주광역시 광산구 목련로 310-23,광주선,35.17629469232916,126.83087974810634,아니오
근덕,Geundeok,근덕,근덕,3901159,752946,752946,0600,강원특별자치도 삼척시 근덕면 초곡리 433,동해선,37.31464748603263,129.27717386078703,아니오
금가,Geumga,금가,금가,3901117,280476,280476,,충청북도 충주시 금가면 잠병리 124-4,중부내륙선,37.04773294099961,127.9040011553802,아니오
금강,Geumgang,금강,금강,3900670,830043,830043,0736,대구광역시 동구 금강로 153,대구선,35.8625937466321,128.737237292947,아니오
금곡,Geumgok,금곡,금곡,3900425,140163,140146,0239,경기도 남양주시 금곡로19번길 47,경춘선,37.63736487924826,127.20737678503306,아니오
금교,Geumgyo,금교,금교,3900145,021215,021112,0623,강원특별자치도 원주시 판부면 금대리 산 12-2,중앙선,37.290250144921174,127.99880293758093,예
금릉,Geumneung,금릉,금릉,3900370,110337,110335,0732,경기도 파주시 금릉역로 85,경의선,37.75131421361433,126.76541303439717,아니오
금정,Geumjeong,금정,금정,3900041,010275,010275,0829,경기도 군포시 군포로 750,경부선,37.3722883997142,126.943387738684,아니오
금지,Geumji,금지,금지,3900262,041008,040914,0377,전북특별자치도 남원시 금지면 택내길 81,전라선,35.329028248482665,127.28983009363179,아니오
금천구청,Geumcheon-gu Office,금천구청,금천구,3900036,010173,010173,0252,서울특별시 금천구 시흥대로63길 91,경부선,37.45559465578539,126.89400447835611,아니오
금촌,Geumchon,금촌,금촌,3900371,110351,110356,0398,경기도 파주시 새꽃로 193,경의선,37.766198067504504,126.77460440064505,아니오
금호,Gumho,금호,금호,3900673,830249,830190,0473,경상북도 영천시 금호읍 금호역길 40-6,대구선,35.93139447843992,128.86741658326986,아니오
금호3,Gumho (Seoul Metro 3),금호3,금호3,3900811,930169,930169,,서울특별시 성동구 동호로 지하 104,서울 지하철 3호선,37.5481132202293,127.015894167792,아니오
기동,Gidong,기동,기동,3900347,081297,081297,0291,충청남도 서천군 종천면 지석리 48-2,장항선,36.1121006349924,126.686824760355,예
기성,Giseong,기성,기성,3901152,752319,752319,0607,경상북도 울진군 기성면 정명리,동해선,36.78949638816987,129.44775082544507,아니오
기장,Gijang,기장,기장,3900631,750329,750294,0187,부산광역시 기장군 기장읍 차성로288번길 86,동해선,35.2437321097481,129.218720324141,아니오
기흥,Giheung,기흥,기흥,3900986,230386,230395,,경기도 용인시 기흥구 중부대로 지하 460,분당선,37.2753182557895,127.115953270053,아니오
길음,Gireum,길음,길음,3900838,940106,940106,,서울특별시 성북구 동소문로 지하 248,서울 지하철 4호선,37.60339253200481,127.0250500044803,아니오
김유정,Gimyujeong,김유정,김유정,3900435,140787,140721,0246,강원특별자치도 춘천시 신동면 김유정로 1435,경춘선,37.81817474818782,127.71393972594704,아니오
김제,Gimje,김제,김제,3900214,031056,031056,0031,전북특별자치도 김제시 두월로 198,호남선,35.7933109789508,126.90447285372005,아니오
김천,Gimcheon,김천,김천,3900085,012546,012538,0012,경상북도 김천시 김천로 111,",경부선,경북",36.12408834745067,128.1149057942236,아니오
김천구미,Gimcheon(Gumi),김천구미,김천구,3900894,H12383,H12141,0507,경상북도 김천시 남면 혁신1로 51,경부고속선,36.11290371691169,128.18108999024005,아니오
김천기관,,김천기관,김천기,3900870,A12546,A12546,,경상북도 김천시 평화동 110-2,,36.1280607385989,128.111469047684,아니오
김천열분,,김천열분,김천열,3900011,000023,000023,,,,,,아니오
김포공항,Gimpo Int'l Airport,김포공항,김포공,3900930,C10204,C10204,0916,서울특별시 강서구 하늘길 지하 77,공항철도,37.561884570020744,126.80184762763572,아니오
나원,Nawon,나원,나원,3900648,751174,751148,0461,경상북도 경주시 현곡면 나원길 58-3,",동해남부선,금장삼각",35.885223,129.215334,예
나전,Najeon,나전,나전,3900591,610326,610326,0201,강원특별자치도 정선군 북평면 북평8길 38,정선선,37.45020461966219,128.66888407628846,아니오
나주,Naju,나주,나주,3900231,031998,032015,0037,전라남도 나주시 나주역길 56,호남선,35.013769439316015,126.71729318235533,아니오
나한정,Nahanjeong,나한정,나한정,3900571,601089,601089,0164,강원특별자치도 삼척시 도계읍 강원남부로 1042-81,영동선,37.20124181842137,129.03641826743853,예
낙동강,Nakdonggang,낙동강,낙동강,3900681,880017,880017,0477,경상남도 밀양시 삼랑진읍 삼랑진로 119,",경전선,미전",35.38877653361741,128.8298928143965,아니오
낙성대,Nakseongdae,낙성대,낙성대,3900766,910255,910255,,서울특별시 관악구 남부순환로 지하 1928,서울 지하철 2호선,37.4770647026825,126.963409735402,아니오
남강릉,Namgangneung,남강릉,남강릉,3901062,N11111,N11129,,강원특별자치도 강릉시 박월동 711,원주강릉선,37.7194770692637,128.914535655027,아니오
남동인더스,Namdong Induspark,남동인더스,남동인,3900993,100085,100085,,인천광역시 남동구 은청로 17,수인선,37.4077124705945,126.695263933475,아니오
남문산,Nammunsan,남문산,남문산,3900697,880915,880991,0131,경상남도 진주시 문산읍 동부로 556-5,경전선,35.165761332691,128.16313259567,예
남부터미널,Seoul Nambu Bus Terminal,남부터미널,남부터,3900818,930259,930259,,서울특별시 서초구 서초중앙로 지하 31,서울 지하철 3호선,37.4851401105839,127.016206773243,아니오
남성현,Namseonghyeon,남성현,남성현,3900101,013542,013531,0317,경상북도 청도군 화양읍 다로길 39,경부선,35.70476169888346,128.71608294675573,아니오
남영,Namyeong,남영,남영,3900024,010017,010017,0820,서울특별시 용산구 한강대로77길 25,경부선,37.5405648459043,126.971332831821,아니오
남원,Namwon,남원,남원,3900259,040868,040795,0048,전북특별자치도 남원시 교룡로 71,전라선,35.41047349517645,127.36040345206496,아니오
남창,Namchang,남창,남창,3900636,750560,750534,0186,울산광역시 울주군 온양읍 남창리 42-36,",동해선,온산",35.41931121226439,129.28269392540213,아니오
남창원,Namchangwon,남창원,남창원,3900663,810092,810092,0466,경상남도 창원시 성산구 완암로 1,진해선,35.20243813703756,128.6600153319705,아니오
남철송장,Namchulsongjang,남철송장,남철송,3901009,590077,590077,,부산광역시 강서구 신항남로 588,신항남선,35.062985890654964,128.81352895955973,아니오
남춘천,Namchuncheon,남춘천,남춘천,3900436,140840,140780,0152,강원특별자치도 춘천시 영서로 2260,경춘선,37.864044486958,127.723914890526,아니오
남태령,Namtaeryeong,남태령,남태령,3900855,940311,940311,0894,서울특별시 서초구 과천대로 지하 816,서울 지하철 4호선,37.464248604439575,126.98908639826062,아니오
남평,Nampyeong,남평,남평,3900729,882847,882730,0497,전라남도 나주시 남평읍 동촌로 313,경전선,35.05740012657912,126.87121318606019,아니오
남포,Nampo,남포,남포,3900340,080997,080917,0137,충청남도 보령시 남포면 남포역전길 144,",장항선,남포",36.3143967381182,126.5952493541826,아니오
내수,Naesu,내수,내수,3900284,050288,050288,0293,충청북도 청주시 청원구 내수읍 내수학평길 35-40,충북선,36.72872220119086,127.53387956671446,아니오
내판,Naepan,내판,내판,3900067,011354,011349,0305,세종특별자치시 연동면 청연로 601,경부선,36.55769219550673,127.32446899641462,아니오
노량진,Noryangjin,노량진,노량진,3900027,010058,010058,0251,서울특별시 동작구 노량진로 151,경부선,37.51413486319079,126.94186097623148,아니오
노령,Noryeong,노령,노령,3900220,031416,031416,0355,전북특별자치도 정읍시 입암면 입암로 171-18,호남선,35.490383533340705,126.80086568820502,아니오
노안,Noan,노안,노안,3900230,031953,031950,0361,전라남도 나주시 노안면 노안로 486,호남선,35.06675451736964,126.7426329213211,아니오
노원,Nowon,노원,노원,3900832,940022,940022,,서울특별시 노원구 상계로 69-1,서울 지하철 4호선,37.6562679212181,127.063030247789,아니오
녹동,Nokdong,녹동,녹동,3900557,600427,600427,0436,경상북도 봉화군 법전면 소천로 414,영동선,36.9162790333118,128.95552259866665,아니오
녹번,Nokbeon,녹번,녹번,3900800,930059,930059,,서울특별시 은평구 통일로 지하 602-1,서울 지하철 3호선,37.600730679242,126.93601248956,아니오
녹양,Nogyang,녹양,녹양,3900404,130339,130337,,경기도 의정부시 평화로 757,경원선,37.7593980594662,127.04227380296,아니오
녹천,Nokcheon,녹천,녹천,3900395,130207,130207,0842,서울특별시 도봉구 덕릉로 376,경원선,37.644619931800115,127.05137974337875,아니오
논산,Nonsan,논산,논산,3900204,030508,030508,0027,충청남도 논산시 해월로 236-12,호남선,36.20703994886913,127.09295272285351,아니오
능곡,Neunggok,능곡,능곡,3900362,110165,110164,0391,경기도 고양시 덕양구 토당로 35,",경의선,서울교외",37.61864822526758,126.82093580673745,아니오
능주,Neungju,능주,능주,3900725,882666,882549,0132,전라남도 화순군 능주면 관영리 학포로 1896-10,경전선,34.98569981804648,126.96418559773117,아니오
다산,Dasan,다산,다산,3900209,030754,030754,0348,전북특별자치도 익산시 함열읍 용지리 273-2,호남선,36.05046089888048,126.94835539464523,예
다솔사,Dasolsa,다솔사,다솔사,3900702,881224,881121,0485,경상남도 사천시 곤명면 봉계리 545-8,경전선,35.1110809499809,127.934586594428,예
다시,Dasi,다시,다시,3900233,032099,032089,0266,전라남도 나주시 다시면 다시로 218,호남선,35.01643901005455,126.64112568207536,아니오
단성,Danseong,단성,단성,3900158,021832,021714,0176,충청북도 단양군 단성면 단양로 428,중앙선,36.93467764138999,128.33550030207485,예
단양,Danyang,단양,단양,3900157,021784,021666,0096,충청북도 단양군 단양읍 단양로 896,중앙선,36.97310481504721,128.3440042251397,아니오
단촌,Danchon,단촌,단촌,3900175,022754,022620,0180,경상북도 의성군 단촌면 장터길 29-6,중앙선,36.42201476223639,128.6752752924192,예
달미,Dalmi,달미,달미,3901080,270159,270340,,경기도 안산시 단원구 선부동 481,서해선,37.34880102702674,126.80942057002116,아니오
달월,Dalwol,달월,달월,3901024,100021,100021,,경기도 시흥시 서해안로736번길 55,수인선,37.38001359907593,126.74535609921986,아니오
달천,Dalcheon,달천,달천,3900291,050789,050789,0247,충청북도 충주시 대소원면 상용두2길 15,충북선,36.96115804221475,127.87692949799496,아니오
당고개,Danggogae,당고개,당고개,3900830,940000,940000,,서울특별시 노원구 상계로 305,서울 지하철 4호선,37.6702922283885,127.079010720031,아니오
당산,Dangsan,당산,당산,3900776,910376,910376,,서울특별시 영등포구 당산로 229,서울 지하철 2호선,37.5349569673169,126.902730628008,아니오
당정,Dangjeon,당정,당정,3900043,010313,010313,,경기도 군포시 당정역로 91,경부선,37.34352358459912,126.94838315399076,아니오
대곡,Daegok,대곡,대곡,3900363,110180,110182,0392,경기도 고양시 덕양구 대주로107번길 71-81,경의선,37.631690930861545,126.81001180550666,아니오
대공원,Grand park,대공원,대공원,3900470,220105,220105,0864,경기도 과천시 막계동 289,과천선,37.43605619515058,127.00675700159466,아니오
대관령,Daegwallyeong,대관령,대관령,3901061,N10914,N10932,,,원주강릉선,37.68360096,128.70798294,아니오
대광리,Daegwang-ri,대광리,대광리,3900419,130844,130844,0417,경기도 연천군 신서면 연신로 1156,경원선,38.18378194704977,127.10818336238016,아니오
대구,Daegu,대구,대구,3900095,013239,013231,0023,대구광역시 북구 태평로 161 대구민자역사 (칠성동2가 302-155),경부선,35.87603231276374,128.59544900570864,아니오
대구기관,,대구기관,대구기,3900871,A13271,A13271,,대구광역시 동구 신암남로24길 90,,35.8819008277595,128.634584349918,아니오
대구남연결,Daegu South Connecting Line Junction,대구남연결,대구남,3900912,H12953,H12738,,대구광역시 수성구 만촌동 산 101-2,경부고속선,35.87231698171398,128.65654568661304,아니오
대구북연결,Daegu North Connecting Line Junction,대구북연결,대구북,3900888,H12718,H12597,,경상북도 칠곡군 지천면 신리,경부고속선,35.881055633,128.547456878,아니오
대구열분,,대구열분,대구열,3900020,000052,000052,,,,,,아니오
대구차량사업소,Daegu Depot,대구차량사업소,대구차량,3900979,X00010,X00010,,대구광역시 동구 신암남로24길 90,,35.8819008277595,128.634584349918,아니오
대림,Daerim,대림,대림,3900772,910326,910326,,서울특별시 구로구 도림천로 351,서울 지하철 2호선,37.4933109605293,126.894946546309,아니오
대모산입구,Daemosan,대모산입구,대모산,3900478,230094,230103,,서울특별시 강남구 개포로 지하 522,분당선,37.4915453161798,127.073168642526,아니오
대방,Daebang,대방,대방,3900028,010073,010073,0821,서울특별시 영등포구 여의대방로 300,경부선,37.5133254055904,126.926303189604,아니오
대불,Daebul,대불,대불,3900540,400120,400120,,전라남도 영암군 삼호읍 대불로 667,대불선,34.773884530331664,126.41950510041342,아니오
대성리,Daeseong-ri,대성리,대성리,3900428,140362,140324,0148,경기도 가평군 청평면 경춘로 88,경춘선,37.683873436803104,127.37941430533515,아니오
대신,Daesin,대신,대신,3900086,012643,012635,0310,경상북도 김천시 아포읍 대신길 70-14,경부선,36.152584777746206,128.1964244156116,아니오
대야,Daeya,대야,대야,3901105,320131,081411,0528,전북특별자치도 군산시 대야면 산월리 248-27,군산화물선,35.944614479535346,126.82384378796644,아니오
대야미,Daeyami,대야미,대야미,3900454,210060,210060,0851,경기도 군포시 대야1로 28,안산선,37.32796962873085,126.91689412966048,아니오
대열소,,대열소,대열소,3900009,000021,000021,,,,,,아니오
대전,Daejeon,대전,대전,3900073,011668,011663,0010,대전광역시 동구 중앙로 215,",경부선,대전",36.33211026260082,127.43465797348497,아니오
대전기관,,대전기관,대전기,3900869,A11668,A11668,,,,,,아니오
대전남연결,Daejeon South Connecting Line Junction,대전남연결,대전남,3900887,H11809,H11443,,충청북도 옥천군 옥천읍 삼청리 587-1,경부고속선,36.2622913122307,127.573254218735,아니오
대전북연결,Daejeon North Connecting Line Junction,대전북연결,대전북,3900886,H11519,H11338,,대전광역시 대덕구 신대동 산 13-6,경부고속선,36.394266719250915,127.41425160894272,아니오
대전조차장,Daejeon Marshalling Yard,대전조차장,대전조,3900072,011621,011616,0617,대전광역시 대덕구 아리랑로 166,",경부선,호남선,경부고속",36.3665956319267,127.421156569285,아니오
대전조차장차량사업소,Daejeon Marshalling Yard Depot,대전조차장차량사업소,대전조차량,3900975,X00006,X00006,,대전광역시 대덕구 아리랑로 166,,36.3665956319267,127.421156569285,아니오
대전차량,Daejeon Depot,대전차량,대전차,3901064,1U0029,1U0029,,대전광역시 대덕구 아리랑로 166,대전기지선,36.3665956319267,127.421156569285,아니오
대전차량사업소,Daejeon Depot,대전차량사업소,대전차량,3900974,X00005,X00005,,,,,,아니오
대전철도차량정비단,Daejeon Train Vehicle Maintanence Workshop,대전철도차량정비단,대전정비,3900958,A11524,A11524,,대전광역시 대덕구 벚꽃길 150,,36.42721221248296,127.43110613231403,아니오
대정,Daejeong,대정,대정,3900438,150028,150028,0418,경기도 고양시 덕양구 대장동 70-2,서울교외선,37.64128811878115,126.8211930639458,아니오
대지청,Daejeon Regional Headquarters,대지청,대지청,3900002,000002,000002,,,,,,아니오
대천,Daecheon,대천,대천,3900338,080952,080886,0083,충청남도 보령시 대해로 116,장항선,36.3416187225739,126.586412371963,아니오
대청,Daecheong,대청,대청,3900824,930323,930323,,서울특별시 강남구 일원로 지하 2,서울 지하철 3호선,37.4937222540002,127.079494059469,아니오
대치,Daechi,대치,대치,3900822,930306,930306,,서울특별시 강남구 남부순환로 지하 2952,서울 지하철 3호선,37.494562998545,127.063429717822,아니오
대화,Daehwa,대화,대화,3900503,240192,240192,0886,경기도 고양시 일산서구 중앙로 지하 1569,일산선,37.6759583899803,126.747307238172,아니오
덕계,Deokgye,덕계,덕계,3900407,130409,130406,,경기도 양주시 고덕로139번길 317,경원선,37.818773118105,127.056653707775,아니오
덕산,Deoksan,덕산,덕산,3900684,880228,740082,0233,경상남도 창원시 의창구 동읍 용잠로35번길 11,덕산선,35.2799010179915,128.68690191343,아니오
덕소,Deokso,덕소,덕소,3900122,020178,020172,0168,경기도 남양주시 와부읍 덕소로 56,중앙선,37.5868975295809,127.208818945178,아니오
덕양,Deogyang,덕양,덕양,3900275,041819,041656,0052,전라남도 여수시 소라면 여순로 56,",전라선,여천",34.8122623912955,127.6279753514614,아니오
덕정,Deokjeong,덕정,덕정,3900408,130437,130435,0408,경기도 양주시 화합로 1356,경원선,37.84320658730094,127.06152638977473,아니오
덕하,Deokha,덕하,덕하,3900637,750653,750627,0209,울산광역시 울주군 청량읍 상남리 533-23,동해선,35.494045664031766,129.30313005359832,아니오
도경리,Dogyeong-ri,도경리,도경리,3900579,601410,601401,0443,강원특별자치도 삼척시 도경북길 121,영동선,37.44230901888203,129.11560393970367,아니오
도계,Dogye,도계,도계,3900572,601122,601113,0111,강원특별자치도 삼척시 도계읍 도계로 222,영동선,37.22921131770337,129.04418949716043,아니오
도계솔안,Dogye-Solan Junction,도계솔안,도계솔,3901046,601124,601102,,강원특별자치도 삼척시 도계읍 흥전리 68-3,영동선,37.221101633165894,129.0414133201132,아니오
도고온천,Dogo oncheon,도고온천,도고온,3900324,080309,080252,0077,충청남도 아산시 도고면 온천대로 304,장항선,36.7496301192295,126.889841155691,아니오
도곡,Dogok,도곡,도곡,3900475,230075,230084,0897,서울특별시 강남구 남부순환로 지하 2814,분당선,37.49106369072861,127.05537338700654,아니오
도농,Donong,도농,도농,3900120,020117,020112,0207,경기도 남양주시 경춘로 433,중앙선,37.6088251248715,127.161152836281,아니오
도담,Dodam,도담,도담,3900156,021723,021605,0095,충청북도 단양군 매포읍 매포길 113-10,중앙선,37.02430056533323,128.32637556951966,아니오
도라산,Dorasan,도라산,도라산,3900377,110557,110560,0403,경기도 파주시 장단면 희망로 307,경의선,37.8985725009045,126.709933204374,아니오
도림,Dorim,도림,도림,3900721,882503,882497,0492,전라남도 화순군 이양면 송정길 20-1,경전선,34.8670436128937,127.011006081933,예
도림천,Dorimcheon,도림천,도림천,3900793,920010,920010,,서울특별시 구로구 경인로67길 160,서울 지하철 2호선 신정지선,37.5144407502251,126.882701659206,아니오
도봉,Dobong,도봉,도봉,3900398,130247,130247,0845,서울특별시 도봉구 도봉로170길 2,경원선,37.679098391447944,127.0455087442808,아니오
도봉산,Dobongsan,도봉산,도봉산,3900399,130259,130259,0846,서울특별시 도봉구 도봉로 948,경원선,37.689608093035105,127.04603669958237,아니오
도심,Dosim,도심,도심,3900123,020187,020187,,경기도 남양주시 와부읍 덕소로 237,중앙선,37.5796320673832,127.222654440996,아니오
도안,Doan,도안,도안,3900286,050428,050428,0294,충청북도 증평군 도안면 화성로 66,충북선,36.81410941879366,127.61445700078808,아니오
도원,Dowon,도원,도원,3900315,060265,060239,0817,인천광역시 동구 참외전로 245 (창영동 179-1),경인선,37.46878541413983,126.64246670547155,아니오
도화,Dohwa,도화,도화,3900313,060241,060215,0891,인천광역시 미추홀구 숙골로24번길 9,경인선,37.4661097175013,126.668375367199,아니오
독립문,Dongnimmun,독립문,독립문,3900803,930095,930095,,서울특별시 종로구 무악동 11-11,서울 지하철 3호선,37.5748560721478,126.957551789433,아니오
독산,Doksan,독산,독산,3900035,010161,010161,0887,서울특별시 금천구 벚꽃로 115,경부선,37.46598777828,126.889514136229,아니오
동교,Donggyo,동교,동교,3900118,020085,020085,0621,경기도 구리시 인창동 541-10,중앙선,37.6065079020287,127.1316534887,예
동대구,Dongdaegu,동대구,동대구,3900096,013271,013263,0015,대구광역시 동구 동대구로 550,",경부고속선,경부",35.8793652672396,128.62871160044,아니오
동대입구,Dongguk Univ.,동대입구,동대입,3900809,930154,930154,,서울특별시 중구 동호로 지하 256,서울 지하철 3호선,37.5590303937038,127.005460095279,아니오
동두천,Dongducheon,동두천,동두천,3900412,130531,130531,0410,경기도 동두천시 평화로 2687,경원선,37.9278251252725,127.054876750373,아니오
동두천중앙,Dongducheonjungang,동두천중앙,동두중,3900410,130503,130501,0409,경기도 동두천시 동두천로 228,경원선,37.90180685445166,127.05644151314746,아니오
동래,Dongnae,동래,동래,3900624,750106,750098,0189,부산광역시 동래구 낙민로 27,동해선,35.1973207322836,129.091140815287,아니오
동량,Dongnyang,동량,동량,3900294,050927,050927,0296,충청북도 충주시 동량면 동산로 159,충북선,37.034411275481226,127.97206192721981,아니오
동묘앞,Dongmyo,동묘앞,동묘앞,3900742,900052,900052,,서울특별시 종로구 종로 359,서울 지하철 1호선,37.573251330767896,127.01649045301765,아니오
동방,Dongbang,동방,동방,3900646,751058,751032,0724,경상북도 경주시 산업로 3490-5,동해남부선,35.804300,129.263503,예
동백산,Dongbaeksan,동백산,동백산,3900567,651053,600931,0450,강원특별자치도 태백시 동태백로 1024,",태백선,영동",37.15473444181095,129.03422714628013,아니오
동백정,Dongbaekjeong,동백정,동백정,3900451,200176,200176,,충청남도 서천군 서면 마량리 313-3,서천화력선,36.1404284757992,126.498388083775,아니오
동산,Dongsan,동산,동산,3900246,040173,040173,0366,전북특별자치도 전주시 덕진구 동부대로 1492,",전라선,북전주",35.875972277880955,127.08641026165544,아니오
동송정신호,Dongsongjeong,동송정신호,동송정,3900733,882979,882868,,광주광역시 광산구 상무대로419번길 8-37,경전선,35.14526299772204,126.81680156861508,아니오
동순천,Dongsuncheon,동순천,동순천,3900270,041578,041437,0381,전라남도 순천시 조곡동 360-7,전라선,34.9578042759328,127.491306881966,예
동암,Dongam,동암,동암,3900310,060207,060181,0813,인천광역시 부평구 동암광장로 10,경인선,37.47075034403469,126.70290818997054,아니오
동열소,,동열소,동열소,3900018,000044,000044,,,,,,아니오
동운,Dongun,동운,동운,3900269,041530,041376,0380,전라남도 순천시 서면 동산리 495-7,전라선,35.008258963222175,127.4790239394253,아니오
동익산,Dongiksan,동익산,동익산,3900243,040024,040024,0364,전북특별자치도 익산시 옛둑2길 84,",전라선,익산삼각",35.92065698161946,126.95679689054396,아니오
동인천,Dongincheon,동인천,동인천,3900316,060277,060251,0818,인천광역시 중구 참외전로 121,경인선,37.47507719937664,126.63308172641378,아니오
동작,Dongjak,동작,동작,3900852,940266,940266,,서울특별시 동작구 현충로 257,서울 지하철 4호선,37.50287042323,126.980268633657,아니오
동점,Dongjeom,동점,동점,3900564,600830,600830,0437,강원특별자치도 태백시 태백로 2382,영동선,37.08430706609191,129.04607015322227,아니오
동촌,Dongchon,동촌,동촌,3900668,830031,820031,0470,대구광역시 동구 검사동 756-5,대구선,35.8896157515572,128.65115327873,아니오
동해,Donghae,동해,동해,3900580,601485,601476,0113,강원특별자치도 동해시 동해역길 69,",영동선,동해선,묵호항선,북평",37.49802797818921,129.1231793868528,아니오
동해기관,,동해기관,동해기,3900863,A01485,A01485,,,,,,아니오
동해차량사업소,Donghae Depot,동해차량사업소,동해차량,3900978,X00009,X00009,,강원특별자치도 동해시 동해역길 69,,37.4996188350833,129.12379802699,아니오
동화,Donghwa,동화,동화,3900140,020986,N10019,0173,강원특별자치도 원주시 문막읍 보통로 221,중앙선,37.342344454564945,127.85836943689883,예
두원,Duwon,두원,두원,3900506,300128,300128,0426,경상북도 김천시 어모면 구례리 666-4,경북선,36.22094018420218,128.10151227957576,예
두정,Dujeong,두정,두정,3900060,010940,010936,0615,충청남도 천안시 서북구 서북구 두정로 289,",경부선,천안직결",36.8329348706996,127.149020738963,아니오
둔내,Dunnae,둔내,둔내,3901058,N10428,N10443,0517,강원특별자치도 횡성군 둔내면 고원로 116,원주강릉선,37.50976811741935,128.2212371118372,아니오
득량,Deugnayng,득량,득량,3900717,882237,882120,0205,전라남도 보성군 득량면 역전길 28,경전선,34.76111111799959,127.17096977402156,아니오
디엠시,DMC (Metro KJ),디지털시티,디엠시,3900357,110075,110075,,서울특별시 은평구 수색로 193,경의선,37.57749239013869,126.90033848077593,아니오
디엠시공,DMC (A'REX),디지털(공,디엠공,3900929,C10095,C10095,0915,서울특별시 마포구 성암로 184,공항철도,37.57755105131835,126.89781672203239,아니오
뚝섬,Ttukseom,뚝섬,뚝섬,3900792,910534,910534,,서울특별시 성동구 아차산로 18,서울 지하철 2호선,37.5471879774231,127.047364815358,아니오
량열소,,량열소,량열소,3900007,000012,000012,,,,,,예
마곡나루,MagokNaru,마곡나루,마곡나루,3901084,C10182,C10182,,서울특별시 강서구 마곡중앙로 지하 135,공항철도,37.565573715182666,126.82739582465454,아니오
마두,Madu,마두,마두,3900500,240153,240153,0883,경기도 고양시 일산동구 중앙로 지하 1180,일산선,37.6523215461364,126.778190785188,아니오
마사,Masa,마사,마사,3900169,022425,022291,0333,경상북도 안동시 북후면 산약길 476-17,중앙선,36.65007742590717,128.73254352874187,예
마산,Masan,마산,마산,3900686,880345,880421,0059,경상남도 창원시 마산회원구 마산역광장로 18,경전선,35.236410367490194,128.5767470944638,아니오
마산기관,,마산기관,마산기,3900878,A80345,A80345,,경상남도 창원시 마산회원구 마산역광장로 18,,35.2361109298038,128.577218823022,아니오
마산열분,,마산열분,마산열,3900021,000053,000053,,,,,,아니오
마산차량사업소,Masan Depot,마산차량사업소,마산차량,3900981,X00012,X00012,,경상남도 창원시 마산회원구 마산역광장로 18,,35.23695129548431,128.57621382345502,아니오
마석,Maseok,마석,마석,3900427,140277,140250,0147,경기도 남양주시 화도읍 마석중앙로 107,경춘선,37.65275416528938,127.31159517289079,아니오
마성,Maseong,마성,마성,3900529,310174,310174,0704,경상북도 문경시 마성면 외어리 712-5,문경선,36.6955800118852,128.128050363706,아니오
마전,Majeon,마전,마전,3900406,130377,130377,,경기도 양주시 산북동 211-19,경원선,37.79274483,127.05021056,아니오
마차리,Macha-ri,마차리,마차리,3900575,601221,601212,0440,강원특별자치도 삼척시 신기면 마차길 3,영동선,37.3057112611604,129.0723450328417,아니오
마천,Macheon,마천,마천,3900857,950769,950769,,서울특별시 송파구 마천로57길 지하 7,서울 지하철 5호선,37.4946699332802,127.152320074137,아니오
만성,Manseong,만성,만성,3900278,041949,041800,0228,전라남도 여수시 만흥동 114-1,전라선,34.7723257913029,127.745445860508,예
만수,Mansu,만수,만수,3900726,882706,882762,0495,전라남도 화순군 능주면 만수리 산1-2,경전선,35.0186356687093,126.952682326725,예
만안,,만안,만안,3901180,480204,480204,,,,,,아니오
만종,Manjong,만종,만종,3900141,021033,N10054,0326,강원특별자치도 원주시 호저면 운동들1길 33,원주강릉선,37.353849357176465,127.89317301565211,아니오
망상,Mangsang,망상,망상,3900582,601605,601596,0038,강원특별자치도 동해시 동해대로 6180,영동선,37.58741679323674,129.09744763898618,아니오
망상해수욕장,Mangsang Beach,망상해,망상해,3900583,601602,601612,0734,강원특별자치도 동해시 동해대로 6270-21,영동선,37.59281524881892,129.0881687790316,아니오
망양,Mangyang,망양,망양,3901094,750572,750572,,울산광역시 울주군 온양읍 망양리 483-3,",동해선,울산신항",35.4569019966899,129.288210295813,아니오
망우,Mangu,망우,망우,3900116,020046,020046,0319,서울특별시 중랑구 망우로55길 11-10,",중앙선,경춘선,이문기지",37.59963391441112,127.09177272379691,아니오
망월사,Mangwolsa,망월사,망월사,3900400,130282,130282,0847,경기도 의정부시 평화로 221,경원선,37.7104588863055,127.04735917813,아니오
망포,Mangpo,망포,망포,3901005,230468,230468,,경기도 수원시 영통구 덕영대로 지하 1520 (영통동 1069),분당선,37.24588927344641,127.05686721753298,아니오
망호,Mangho,망호,망호,3901101,022700,022700,,경상북도 안동시 일직면 망호리 773-2,중앙선,36.460097312,128.669690370,예
매곡,Maegok,매곡,매곡,3900136,020803,020723,0249,경기도 양평군 양동면 매월리 1031,중앙선,37.43662151481914,127.73012650839216,아니오
매교,Maegyo,매교,매교,3901013,230514,230514,,경기도 수원시 팔달구 효원로 지하 126,분당선,37.2654996089682,127.015736900606,아니오
매봉,Maebong,매봉,매봉,3900820,930289,930289,,서울특별시 강남구 남부순환로 지하 2744,서울 지하철 3호선,37.4869609501937,127.04661427216,아니오
매탄권선,MaetanGwonseon,매탄권선,매탄권,3901011,230486,230486,,경기도 수원시 영통구 권선로 지하 841,분당선,37.2525380959636,127.040760177744,아니오
매포,Maepo,매포,매포,3900069,011449,011444,0306,세종특별자치시 부강면 시목부강로 332-3,경부선,36.49876945813963,127.39094692830953,아니오
매화,Maehwa,매화,매화,3901153,752428,752428,0605,경상북도 울진군 매화면,동해선,36.88273708,129.40989088,아니오
명동,Myeongdong,명동,명동,3900845,940181,940181,,서울특별시 중구 퇴계로 지하 126,서울 지하철 4호선,37.5609097340214,126.985947364551,아니오
명봉,Myeongbong,명봉,명봉,3900720,882416,882299,0235,전라남도 보성군 노동면 예재로 384,경전선,34.82762581897012,127.07604187270888,아니오
명학,Myeonghak,명학,명학,3900040,010261,010261,0828,경기도 안양시 만안구 만안로 20,경부선,37.384446454832194,126.93559562650671,아니오
모란,Moran,모란,모란,3900483,230199,230208,0871,경기도 성남시 중원구 성남대로 지하 1147,분당선,37.4321850982512,127.129033610545,아니오
모량,Moryang,모량,모량,3901036,8B0000,751147,,경상북도 경주시 건천읍 모량리 211-19,",중앙선,동해선,경주삼각선,건천연결",35.8275701095337,129.126385331505,아니오
모화,Mohwa,모화,모화,3900642,750894,750868,0459,경상북도 경주시 외동읍 산업로 1882,동해선,35.682315,129.332653,예
목천신호소,Mokcheon Signal Box,목천신호소,목천신,3901103,081520,081505,,전북특별자치도 익산시 목천동,",익산삼각선,장항",35.93380943,126.92380035,아니오
목포,Mokpo,목포,목포,3900242,032563,032525,0041,전라남도 목포시 영산로 98,호남선,34.791628786704216,126.3878114285931,아니오
목포차량사업소,Mokpo Depot,목포차량사업소,목포차,3900947,A32563,A32563,,전라남도 목포시 영산로 98,,34.7949333197907,126.389529222514,아니오
목행,Mokhaeng,목행,목행,3900293,050881,050881,0074,충청북도 충주시 목수1길 13-10,충북선,37.016220639613536,127.93144077668028,아니오
몽탄,Mongtan,몽탄,몽탄,3900237,032313,032303,0229,전라남도 무안군 몽탄면 몽탄로 869,호남선,34.92985535804937,126.50367969443631,아니오
무릉,Mureung,무릉,무릉,3900173,022631,022497,0335,경상북도 안동시 남후면 무릉길 62-6,중앙선,36.51905975388376,128.68695462227151,예
무악재,Muakjae,무악재,무악재,3900802,930084,930084,,서울특별시 서대문구 통일로 지하 361,서울 지하철 3호선,37.5823837757585,126.950321625993,아니오
무안,Muan,무안,무안,3900236,032273,032265,0236,전라남도 무안군 몽탄면 우명길 16-32,호남선,34.9622787951737,126.517237364058,아니오
묵호,Mukho,묵호,묵호,3900581,601545,601536,0114,강원특별자치도 동해시 해안로 520,영동선,37.54594198540876,129.1082009195905,아니오
묵호항,Mukhohang,묵호항,묵호항,3900618,680051,680051,0722,강원특별자치도 동해시 향로봉길 91,묵호항선,37.53979807164019,129.1122419294635,아니오
문경,Mungyeong,문경,문경,3901141,280927,280927,0547,경상북도 문경시 문경읍 마원리 238-7,중부내륙선,36.71830865807818,128.11229427466617,아니오
문곡,Mungok,문곡,문곡,3900616,651008,650978,0124,강원특별자치도 태백시 상장로 61,태백선,37.15230356448448,128.98957218853283,아니오
문단,Mundan,문단,문단,3900551,600090,600090,0500,경상북도 봉화군 봉화읍 봉화로 442,영동선,36.86504153510625,128.68279148750412,아니오
문래,Mullae,문래,문래,3900774,910356,910356,,서울특별시 영등포구 당산로 28,서울 지하철 2호선,37.5179214537192,126.894762733337,아니오
문산,Munsan,문산,문산,3900374,110460,110463,0401,경기도 파주시 문산읍 문산역로 94,경의선,37.8546483867013,126.787324392558,아니오
문산차,Munsan Depot,문산차,문산차,3900861,1P0021,1P0021,,경기도 파주시 파주읍 통일로 1365,문산기지선,37.8342810878558,126.785719841097,아니오
문수,Munsu,문수,문수,3900165,022238,022120,0331,경상북도 영주시 문수면 문수로 1360,중앙선,36.76854008489352,128.63054612188085,예
물금,Mulgeum,물금,물금,3900109,014150,014124,0224,경상남도 양산시 물금읍 황산로 347,",경부선,양산화물",35.306752580398694,128.9851565633427,아니오
물류사업본부,,물류사업본부,물류본부,3901121,000055,000055,,,,,,아니오
미군기지,USAG Humphreys,미군기지,미기지,3901034,P30021,P30021,0997,경기도 평택시 팽성읍,숙성기지선,,,아니오
미금,Migeum,미금,미금,3900489,230298,230307,0876,경기도 성남시 분당구 성남대로 지하 156,분당선,37.3500949314003,127.108932954328,아니오
미력,Miryeok,미력,미력,3901131,882072,882072,,,",경전선,목포보성",,,아니오
미로,Miro,미로,미로,3900578,601377,601365,0442,강원특별자치도 삼척시 미로면 강원남부로 3990,영동선,37.41419739021744,129.1138667902655,아니오
미아,Mia,미아,미아,3900836,940078,940078,,서울특별시 강북구 도봉로 지하 198,서울 지하철 4호선,37.62668737470169,127.02604336728744,아니오
미아4거리,Miasageori,미아4거리,미아4,3900837,940093,940093,,서울특별시 강북구 도봉로 지하 50,서울 지하철 4호선,37.6132861239353,127.030098270594,아니오
미전,Mijeon,미전,미전,3900106,013952,013926,0620,경상남도 밀양시 삼랑진읍 미전리 974,",경부선,미전",35.401213816864775,128.8217732205212,아니오
미평,Mipyeong,미평,미평,3900277,041910,041760,0244,전라남도 여수시 둔덕2길 6-11,전라선,34.768070601438,127.703195659455,예
민둥산,Mindungsan,민둥산,민둥산,3900611,650722,650692,0120,강원특별자치도 정선군 남면 무릉1로 128,",태백선,정선",37.24586027922674,128.77288011034898,아니오
밀양,Miryang,밀양,밀양,3900105,013841,013816,0017,경상남도 밀양시 중앙로 62,경부선,35.47496128914136,128.77120900212086,아니오
반곡,Bangok,반곡,반곡,3900144,021175,021072,0327,강원특별자치도 원주시 달마중3길 30,중앙선,37.32317593432734,127.9949373335632,예
반성,Banseong,반성,반성,3900694,880766,880781,0062,경상남도 진주시 일반성면 일사로 787,경전선,35.1747304883748,128.25806329890563,아니오
반야월,Banyawol,반야월,반야월,3900669,830085,820085,0471,대구광역시 동구 신서로 50,대구선,35.8725069887643,128.724957747015,아니오
반월,Banwol,반월,반월,3900455,210080,210080,0852,경기도 안산시 상록구 건건로 119-10,안산선,37.312421414155224,126.90383116003885,아니오
방배,Bangbae,방배,방배,3900764,910222,910222,,서울특별시 서초구 방배로 지하 80,서울 지하철 2호선,37.4814360529981,126.997694733872,아니오
방학,Banghak,방학,방학,3900397,130234,130234,0844,서울특별시 도봉구 도봉로150다길 3,경원선,37.66743116013716,127.0443171832949,아니오
방화,Banghwa,방화,방화,3900856,950000,950000,,서울특별시 강서구 금낭화로 지하 132,서울 지하철 5호선,37.5770068747935,126.812631981372,아니오
배방,Baebang,배방,배방,3900321,080092,080094,0280,충청남도 아산시 배방읍 온천대로 1967,장항선,36.7775632569393,127.052904433856,아니오
백마,Baengma,백마,백마,3900365,110213,110215,0394,경기도 고양시 일산동구 경의로 318,경의선,37.65817190307396,126.7945372783182,아니오
백마고지,Baengmagoji,백마고지,백마고,3901008,130944,130944,0738,강원특별자치도 철원군 철원읍 평화로 3591,경원선,38.2574589359798,127.166284658238,아니오
백산,Baeksan,백산,백산,3900566,600913,600913,0167,강원특별자치도 태백시 동태백로 840,",영동선,태백삼각",37.13920349522321,129.0343202569394,아니오
백석,Baekseok,백석,백석,3900499,240139,240139,0882,경기도 고양시 일산동구 중앙로 지하 1042,일산선,37.6431616315964,126.788171995784,아니오
백양리,Baegyang-ri,백양리,백양리,3900433,140681,140594,0258,강원특별자치도 춘천시 남산면 북한강변길 690,경춘선,37.8308332918203,127.589196723609,아니오
백양사,Baegyangsa,백양사,백양사,3900221,031486,031486,0034,전라남도 장성군 북이면 백양로 2-14,호남선,35.432341670598774,126.80808974574786,아니오
백운,Baegun,백운,백운,3900309,060189,060163,0812,인천광역시 부평구 마장로55번길 14,경인선,37.4832654559562,126.707166038716,아니오
백원,Baegwon,백원,백원,3900510,300444,300444,0261,경상북도 상주시 사벌면 북상주로 620,경북선,36.48224316772936,128.17474048464058,아니오
벌교,Beolgyo,벌교,벌교,3900714,882034,881917,0089,전라남도 보성군 벌교읍 채동선로 228,경전선,34.84229357231034,127.34628420327701,아니오
범계,Beomgye,범계,범계,3900465,220026,220026,0859,경기도 안양시 동안구 동안로 지하 130,과천선,37.38979231563777,126.95078778087561,아니오
범일,Beomil,범일,범일,3900620,750021,750021,0451,부산광역시 부산진구 신천대로71번길 94,",동해선,가야",35.1454465406348,129.057453903386,아니오
법전,Beopjeon,법전,법전,3900555,600327,600327,0435,경상북도 봉화군 법전면 파인토피아로 2434,영동선,36.91663364521803,128.8834176801202,아니오
벡스코,BEXCO,벡스코,벡스코,3900628,750176,750154,0456,부산광역시 해운대구 해운대로 351,동해선,35.1715546837033,129.136096576961,아니오
벽제,Byeokje,벽제,벽제,3900441,150120,150120,0421,경기도 고양시 덕양구 호국로1430번길 8-15,서울교외선,37.680334309263756,126.89387541996588,아니오
별내,Byeollae,별내,별내,3900925,140062,140061,,경기도 남양주시 경춘북로 375,경춘선,37.6422839668576,127.127483398034,아니오
별내별가람,ByeollaeByeolgaram,별내별가람,별가람,3901118,290044,290044,,경기도 남양주시 별내동 836,수도권 전철 4호선,37.66752710724392,127.11548549748902,아니오
별어곡,Byeoreogok,별어곡,별어곡,3900588,610064,610064,0198,강원특별자치도 정선군 남면 칠현로 83,정선선,37.26986059433465,128.73966604838293,아니오
병점,Byeongjeom,병점,병점,3900049,010487,010487,0303,경기도 화성시 떡전골로 97,",경부선,병점기지",37.2068032271729,127.033244621115,아니오
병점차,Byeongjeom Depot,병점차,병점차,3900858,A10487,1G0014,,경기도 오산시 외삼미동 614,병점기지선,37.19550548555379,127.05057541222179,아니오
보산,Bosan,보산,보산,3900411,130517,130515,,경기도 동두천시 평화로 2539,경원선,37.9143180220514,127.057237016191,아니오
보성,Boseong,보성,보성,3900718,882328,882211,0069,전라남도 보성군 보성읍 현충로 90,경전선,34.7668011875784,127.08222878088917,아니오
보정,Bojeong,보정,보정,3900492,230335,230349,,경기도 용인시 기흥구 용구대로 지하 2560,분당선,37.31279835125067,127.1083300820811,아니오
보천,Bocheon,보천,보천,3900287,050515,050515,0295,충청북도 음성군 원남면 충청대로 668-10,충북선,36.87595410065276,127.6577078075872,아니오
복정,Bokjeong,복정,복정,3900480,230156,230165,0868,서울특별시 송파구 송파대로 지하 6,분당선,37.46909181121827,127.12659122484139,아니오
본청,KORAIL Central Headquarters,본청,본청,3900000,000000,000000,,,,,,아니오
봉덕,Bongdeok,봉덕,봉덕,3900266,041337,041210,0378,전라남도 순천시 황전면 봉덕리 55-1,전라선,35.133837623773005,127.45660992832603,아니오
봉림,Bongnim,봉림,봉림,3900182,023181,023047,0221,경상북도 군위군 산성면 갑티로 79,중앙선,36.091871673187,128.7228765739343,예
봉명,Bongmyeong,봉명,봉명,3900318,080013,080013,,충청남도 천안시 동남구 차돌로 51,장항선,36.8012571994737,127.135835482126,아니오
봉성,Bongseong,봉성,봉성,3900554,600257,600257,0434,경상북도 봉화군 봉성면 옥마로 173,영동선,36.89423537475908,128.82983721536507,아니오
봉양,Bongyang,봉양,봉양,3900151,021478,021375,0175,충청북도 제천시 봉양읍 주포로8길 58,",중앙선,충북",37.130057378939284,128.12969447924294,아니오
봉정,Bongjeong,봉정_폐지,폐지,3900674,830291,830232,0474,경상북도 영천시 금호읍 관황길 22,대구선,35.92814770442073,128.90954291308518,아니오
봉천,Bongcheon,봉천,봉천,3900255,040626,040593,0372,전북특별자치도 임실군 오수면 춘향로 2177,전라선,35.58265848708119,127.31367607425344,아니오
봉화,Bonghwa,봉화,봉화,3900552,600147,600147,0105,경상북도 봉화군 봉화읍 봉화로 1072-1,영동선,36.891430246426104,128.72590054866384,아니오
부강,Bugang,부강,부강,3900068,011403,011398,0008,세종특별자치시 부강면 청연로 90,",경부선,부강화물",36.53264593403249,127.36463056855736,아니오
부강화물,Buganghwamul,부강화물,부강화,3900542,420029,420029,,세종특별자치시 연동면 응암리 589-1,부강화물선,36.5436093451566,127.34902635345,아니오
부개,Bugae,부개,부개,3900307,060160,060134,0810,인천광역시 부평구 수변로 22,경인선,37.488488209824,126.740530606695,아니오
부곡기분,,부곡기분,부곡기,3900868,A10339,A10339,,,,,,아니오
부곡차량사업소,Bugok Depot,부곡차량사업소,부곡차량,3900973,X00004,X00004,,경기도 의왕시 왕송못동로 97,,37.3184253979869,126.946747074468,아니오
부발,Bubal,부발,부발,3900967,250428,250420,0529,경기도 이천시 부발읍 신아로 87,",경강선,부발기지선,중부내륙",37.26039914846815,127.49031083687919,아니오
부발차량기,Bubal Depot,부발차량기,부발차,3900970,260031,260031,,경기도 이천시 부발읍 가산리 417,부발기지선,37.25216413786995,127.51150461604314,아니오
부산,Busan,부산,부산,3900114,014445,014417,0020,부산광역시 동구 중앙대로 206,",경부고속선,경부",35.11564743202984,129.04255403090096,아니오
부산교대,Busan Nat'l Univ. of Edu.,부산교대,부교대,3901051,750086,750086,,부산광역시 연제구 중앙대로 1196,동해선,35.1937047900208,129.079476172528,아니오
부산기지,Busan HSR B.C.,부산기지,부산기,3900890,HF0051,HF0051,0592,부산광역시 부산진구 신천대로 215,부산기지선,35.16010513828125,129.0455746124478,아니오
부산북,Busan North Connecting Line Junction,부산북,부산북,3900897,H14225,H13969,,부산광역시 동구 충장대로 255,경부고속선,35.12713135670296,129.04838014912355,아니오
부산신항,Busansinhang,부산신항,부산항,3900892,570215,570213,,부산광역시 강서구 가락대로 394,부산신항선,35.11456424277949,128.84623656648873,아니오
부산신항차량사업소,Busansinhang Depot,부산신항차량사업소,부산신항차,3900954,A70215,A70215,,부산광역시 강서구 가락대로 394,,35.1178740090207,128.846561855335,아니오
부산원동,Busan-Wondong,부산원동,부산원,3901088,750120,750120,,부산광역시 동래구 안락동 1063-1,동해선,35.193634,129.114183,아니오
부산전동차,Busan EMU Siding,부산전동차,부산전,3901053,X00016,X00016,,,,,,아니오
부산진,Busanjin,부산진,부산진,3900113,014427,014399,0144,부산광역시 동구 충장대로 255,",경부선,동해선,우암",35.12849267117634,129.0498128120285,아니오
부산진차량사업소,Busanjin Depot,부산진차량사업소,부산진차,3900956,A14427,A14427,,부산광역시 부산진구 백양대로 99,,35.1602587471033,129.037251253387,아니오
부산차량사업소,Busan Depot,부산차량사업소,부산차,3900953,A14445,A14445,,부산광역시 부산진구 백양대로 99,,35.1602587471033,129.037251253387,아니오
부산철도차량정비단,Busan Train Vehicle Maintanence Workshop,부산철도차량정비단,부단일반,3900971,X00002,X00002,,부산광역시 부산진구 신천대로 145,,35.15200757631719,129.05280007122695,아니오
부열소,,부열소,부열소,3900019,000051,000051,,,,,,아니오
부용,Buyong,부용,부용,3900212,030953,030953,0350,전북특별자치도 김제시 백구면 월연대길 313,호남선,35.87649945421484,126.94387849449974,아니오
부전,Bujeon,부전,부전,3900621,750046,750046,0190,부산광역시 부산진구 부전로 181,동해선,35.164392694647404,129.05991245107245,아니오
부전차량사업소,Bujeon Depot,부전차량사업소,부전차,3900955,A50046,A50046,,,,,,아니오
부조,Bujo,부조,부조,3901039,8B0248,751395,,경상북도 경주시 강동면 유금리 310-2,",동해선,괴동",36.0021657894564,129.285132355854,아니오
부지청,Busan Regional Headquarters,부지청,부지청,3900005,000005,000005,,,,,,아니오
부천,Bucheon,부천,부천,3900304,060121,060095,0807,경기도 부천시 부천로 1,경인선,37.484037408727,126.782649851217,아니오
부천종합운동장,Bucheon Stadium,부천종합운,부천종,3901122,270027,270155,,경기도 부천시 여월동 151-1,서해선,37.50693456974187,126.79768668402794,아니오
부평,Bupyeong,부평,부평,3900308,060175,060149,0811,인천광역시 부평구 광장로 16,경인선,37.48949391528411,126.72444795472558,아니오
부황,Buhwang,부황,부황,3900203,030445,030445,0346,충청남도 논산시 부적면 부황길 160-3,호남선,36.22522315111605,127.1529197228782,아니오
북삼,Buksam,북삼,북삼,3901186,012874,012874,,,경부선,,,아니오
북송정,Buksongjeong,북송정,북송정,3900228,031840,031840,0634,광주광역시 광산구 송정공원로23번길 44-5,호남선,35.14568821814226,126.79660336167416,아니오
북송정분기,Buksongjeong Junction,북송정분기,북송분,3900735,882993,882882,,광주광역시 광산구 신촌동 1064-2,",경전선,북송정삼각",35.144224600981,126.800266155477,아니오
북영주,Bukyeongju,북영주,북영주,3900163,022161,022043,0627,경상북도 영주시 영주동 470-24,",중앙선,북영주삼각",36.8215690448101,128.619639536371,아니오
북영주분기,Bukyeongju Junction,북영주분기,북주분,3900550,600018,600018,,경상북도 영주시 원당로 96-1,",영동선,북영주삼각",36.82053705201817,128.62563349901012,아니오
북영천,Bukyeongcheon,북영천,북영천,3900186,023424,023290,0222,경상북도 영천시 장수로 135,",중앙선,영천삼각",35.97147912482327,128.9136097201763,아니오
북영천분기,Bukyeongcheon Junction,북영천분기,북영분,3900675,830332,830332,,경상북도 영천시 화룡동 264-2,",대구선,영천삼각",35.956852941265886,128.9162519028315,아니오
북울산,Bukulsan,북울산,북울산,3901113,750781,750781,0535,울산광역시 북구 창평동 산 46-10,동해선,35.6144146082065,129.37249728445147,아니오
북전주,Bukejeonju,북전주,북전주,3900541,410017,410017,0709,전북특별자치도 전주시 덕진구 팔과정로 219-20,북전주선,35.866017615864294,127.09854016131864,아니오
북천,Bukcheon,북천,북천,3900703,881269,881166,0064,경상남도 하동군 북천면 경서대로 2347,경전선,35.11171529340342,127.88355849904153,아니오
북철송장,Bukchulsongjang,북철송장,북철송,3900920,580058,580058,,부산광역시 강서구 성북동 1524,신항북선,35.0828908320152,128.815292183985,아니오
분당기지,Bundang Depot,분당기지,분당기,3900493,230343,1A0005,,경기도 용인시 기흥구 용구대로2469번길 92,분당기지선,37.31768976966666,127.1071694574688,아니오
분당차량사업소,Bundang Depot,분당차량사업소,분당차량,3900982,X00013,X00014,,경기도 용인시 기흥구 용구대로2469번길 92,,37.3229718673778,127.107817187946,아니오
분천,Buncheon,분천,분천,3900560,600593,600593,0166,경상북도 봉화군 소천면 분천길 49,영동선,36.93244931685273,129.05770817978362,아니오
불광,Bulgwang,불광,불광,3900799,930048,930048,,서울특별시 은평구 불광동 276-15,서울 지하철 3호선,37.6103892830409,126.930072067076,아니오
불국사,Bulguksa,불국사,불국사,3900645,751013,750987,0185,경상북도 경주시 산업로 3043-8,동해남부선,35.776133,129.296813,예
비동,Bidong,비동,비동,3901022,600635,600635,0636,경상북도 봉화군 소천면 분천리 219-2,영동선,36.95755032050169,129.07356145543244,아니오
비봉,Bibong,비봉,비봉,3900178,022907,022773,0631,경상북도 의성군 의성읍 동부로 2932-11,중앙선,36.303024926585245,128.69285319675257,예
사곡,Sagok,사곡,사곡,3900089,012821,012813,0312,경상북도 구미시 상사서로 173-16,경부선,36.0981803548534,128.35624980251993,아니오
사당,Sadang,사당,사당,3900854,940295,940295,,서울특별시 동작구 남부순환로 2089 (사당동 1129),서울 지하철 4호선,37.47677623832676,126.98166254123338,아니오
사릉,Sareung,사릉,사릉,3900424,140133,140110,0255,경기도 남양주시 진건읍 진건우회로 63,경춘선,37.651140971592994,127.17690981210572,아니오
사리,Sari,사리,사리,3901093,101167,101167,, 경기도 안산시 상록구 사동 206-1,수인선,37.2895876502819,126.856767209171,아니오
사방,Sabang,사방,사방,3900650,751238,751212,0193,경상북도 경주시 안강읍 안현로 886-3,동해남부선,35.937801,129.232651,예
사북,Sabuk,사북,사북,3900612,650782,650752,0121,강원특별자치도 정선군 사북읍 지장천로 616-12,태백선,37.22595976540664,128.81957803461395,아니오
사상,Sasang,사상,사상,3900112,014331,014303,0143,부산광역시 사상구 광장로 108,",경부선,가야",35.162661625899815,128.98893987985647,아니오
산본,Sanbon,산본,산본,3900452,210023,210023,0850,경기도 군포시 번영로 504,안산선,37.3581052450073,126.933175135785,아니오
산성,Sanseong,산성,산성,3900258,040820,040759,0374,전북특별자치도 남원시 내척길 179,전라선,35.44083848596509,127.36200355596614,아니오
산인,Sanin,산인,산인,3900688,880480,880556,0478,경상남도 함안군 산인면 산인로 190,경전선,35.2722334504312,128.455246565423,아니오
살미,Salmi,살미,살미,3901138,280666,280666,0544,,중부내륙선,,,아니오
삼각지,Samgakji,삼각지,삼각지,3900849,940219,940219,,서울특별시 용산구 한강대로 지하 180,서울 지하철 4호선,37.5345929627426,126.973010527447,아니오
삼곡,Samgok,삼곡,삼곡,3900155,021644,021537,0094,충청북도 단양군 매포읍 삼곡길 20-11,중앙선,37.0750861239427,128.274532608914,아니오
삼동,Samdong,삼동,삼동,3900961,250092,250084,,경기도 광주시 순암로 451,경강선,37.4086606338843,127.203374456307,아니오
삼랑진,Samrangjin,삼랑진,삼랑진,3900107,013967,013941,0018,경상남도 밀양시 삼랑진읍 천태로 72,",경부선,경전",35.39902361286965,128.84332352336367,아니오
삼례,Samrye,삼례,삼례,3900245,040133,040133,0044,전북특별자치도 완주군 삼례읍 삼례역로 85-32,전라선,35.9040817792255,127.06585320485031,아니오
삼릉,Samneung,삼릉,삼릉,3900440,150078,150078,0420,경기도 고양시 덕양구 원당동 603-3,서울교외선,37.6784587825295,126.850266805347,아니오
삼산,Samsan,삼산,삼산,3900138,020884,020792,0250,경기도 양평군 양동면 삼산리 936-3,중앙선,37.3922451662212,127.77984583446252,아니오
삼성,Samseong,삼성,삼성,3900100,013466,013457,0316,경상북도 경산시 남천면 삼성역길 64-23,경부선,35.76295530514141,128.72254531937216,아니오
삼송,Samsong,삼송,삼송,3900495,240017,240017,0879,경기도 고양시 덕양구 삼송로 지하 194,일산선,37.6532526658959,126.895742017329,아니오
삼척,Samcheok,삼척,삼척,3900597,630129,630129,0445,강원특별자치도 삼척시 중앙로 13,삼척선,37.429940555229685,129.1781818349058,아니오
삼척해변,Samcheok Beach,삼척해변,삼척해,3900596,630078,630078,0299,강원특별자치도 삼척시 수로부인길 542,삼척선,37.4683062272076,129.166275339405,아니오
삼탄,Samtan,삼탄,삼탄,3900295,051006,051006,0213,충청북도 충주시 산척면 삼여울길 108,충북선,37.07331852751193,128.03948184349744,아니오
삼화,Samhwa,삼화,삼화,3900619,690064,690064,0723,강원특별자치도 동해시 삼화로 54,북평선,37.485546110618095,129.0624695656581,아니오
삽교,Sapgyo,삽교,삽교,3900330,080492,080425,0080,충청남도 예산군 삽교읍 삽교역로 101-14,장항선,36.67985968769079,126.75159015690964,아니오
상갈,Sanggal,상갈,상갈,3901002,230414,230414,,경기도 용인시 기흥구 금화로 지하 40,분당선,37.2618293986879,127.108877351347,아니오
상계,Sanggye,상계,상계,3900831,940012,940012,,서울특별시 노원구 상계로 182,서울 지하철 4호선,37.6609033267453,127.073575557096,아니오
상동,Sangdong,상동,상동,3900104,013747,013722,0272,경상남도 밀양시 상동면 금산7길 4,경부선,35.55558020637597,128.7603986479727,아니오
상록수,Sangnoksu,상록수,상록수,3900456,210117,210117,0853,경기도 안산시 상록구 상록수로 61,안산선,37.30284327769427,126.86654249160544,아니오
상봉,Sangbong,상봉,상봉,3900898,020040,020040,0635,서울특별시 중랑구 망우로 297,중앙선,37.59729079574259,127.08652698816293,아니오
상왕십리,Sangwangsimni,상왕십리,상왕십,3900789,910505,910505,,서울특별시 성동구 왕십리로 지하 374,서울 지하철 2호선,37.5644684400886,127.02903144959,아니오
상정,Sangjeong,상정,상정,3900577,601327,601318,0441,강원특별자치도 삼척시 미로면 상정안길 60,영동선,37.38294844365169,129.10138345694733,아니오
상주,Sangju,상주,상주,3900509,300360,300360,0156,경상북도 상주시 남문1길 24,경북선,36.410930427690616,128.16450731038387,아니오
상천,Sangcheon,상천,상천,3900430,140488,140447,0257,경기도 가평군 청평면 상천역로 29,경춘선,37.77015479634942,127.45444630268607,아니오
서강대,Seokang Univ.,서강대,서강대,3900380,120044,120044,0405,서울특별시 마포구 서강로 지하 118,용산선,37.552703581234,126.934807314566,아니오
서경주,SeoGyeongju,서경주,서경주,3901037,8B0082,751229,0533,경상북도 경주시 현곡면 하구리 992-1,동해선,35.88399485868579,129.18037874068443,아니오
서광주,Seogwangju,서광주,서광주,3900731,882936,882825,0275,광주광역시 서구 풍서좌로 203,경전선,35.12459283925252,126.84799716655426,아니오
서대구,Seodaegu,서대구,서대구,3901112,013189,013189,0506,대구광역시 서구 이현동 747-1,경부선,35.88144110198385,128.5413077248388,아니오
서대전,Seodaejeon,서대전,서대전,3900195,030057,030057,0025,대전광역시 중구 오류로 23,",호남선,대전",36.322997931072024,127.40291584298257,아니오
서도,Seodo,서도,서도,3900257,040741,040695,0373,전북특별자치도 남원시 사매면 서도길 23-17,전라선,35.492238488724155,127.33117774014084,아니오
서동탄,Seodongtan,서동탄,서동탄,3900862,1G0022,1Q0022,,경기도 오산시 외삼미로15번길 75-60,병점기지선,37.195766260236866,127.0518032992152,아니오
서빙고,Seobinggo,서빙고,서빙고,3900383,130036,130036,0833,서울특별시 용산구 서빙고로 238,경원선,37.519579402211725,126.98841376962176,아니오
서생,Seosaeng,서생,서생,3900635,750475,750449,0232,울산광역시 울주군 서생면 화산리 산 180-129,동해선,35.34605141508045,129.29299176882446,아니오
서열소,,서열소,서열소,3900006,000011,000011,,,,,,아니오
서울,Seoul,서울,서울,3900023,010000,010000,0001,서울특별시 중구 한강대로 405,",경부선,경의",37.554197270944904,126.97066878497961,아니오
서울공,Seoul (A'REX),서울(공항,서울공,3900926,C10000,C10000,,서울특별시 용산구 청파로 378,공항철도,37.55334559532017,126.96974678182545,아니오
서울대,Seoul Nat'l Univ.,서울대,서울대,3900767,910265,910265,,서울특별시 관악구 남부순환로 지하 1822,서울 지하철 2호선,37.4811525651509,126.952645424709,아니오
서울숲,Seoul forest,서울숲,서울숲,3900998,230022,230022,,서울특별시 성동구 왕십리로 지하 77,분당선,37.5436185896976,127.044707103659,아니오
서울차량사업소,Seoul Depot,서울차량사업소,서울차,3900939,A10081,A10081,,서울특별시 마포구 성암로 202,,37.578315791182,126.897333425418,아니오
서원주,Seowonju,서원주,서원주,3900997,020864,020864,0524,강원특별자치도 원주시 지정면 간현리 1144,",중앙선,원주강릉",37.3485972767227,127.83929749321,아니오
서정리,Seojeongri,서정리,서정리,3900055,010670,010665,0243,경기도 평택시 탄현로 51,경부선,37.0570045395156,127.053006501854,아니오
서지,Seoji,서지,서지,3900171,022495,022361,0629,경상북도 안동시 퇴계로 442,중앙선,36.59258743126933,128.74399787517424,예
서지청,Seoul Regional Headquarters,서지청,서지청,3900001,000001,000001,,,,,,아니오
서창,Seochang,서창,서창,3900065,011266,011261,0616,세종특별자치시 조치원읍 세종로 2688,",경부선,오송",36.62722627627476,127.29047647004239,아니오
서천,Seocheon,서천,서천,3900345,081343,081223,0086,충청남도 서천군 서천읍 서천역길 57,장항선,36.083117853278324,126.70840721009542,아니오
서초,Seocho,서초,서초,3900763,910205,910205,,서울특별시 서초구 서초대로 지하 233,서울 지하철 2호선,37.4918230276164,127.007580580352,아니오
서판교,,서판교,서판교,3901185,480370,480370,,,,,,아니오
서현,Seohyun,서현,서현,3900486,230253,230262,0873,경기도 성남시 분당구 성남대로 지하 601,분당선,37.3850140867499,127.123430981436,아니오
서화성,Seohwaseong,서화성,서화성,3901142,460000,460000,0537,경기도 화성시 남양읍 문호리,서해선,37.24797503915698,126.78689293209229,아니오
석계,Seokgye,석계,석계,3900392,130171,130171,0840,서울특별시 노원구 화랑로 341,경원선,37.61499291474724,127.065687187763,아니오
석불,Seokbul,석불,석불,3900134,020717,020650,0325,경기도 양평군 지평면 망미리 1319-2,중앙선,37.45999276036347,127.65488544911524,아니오
석수,Seoksu,석수,석수,3900037,010196,010196,0826,경기도 안양시 만안구 경수대로 1431,경부선,37.435295169798536,126.90226458975836,아니오
석정리,Seokjung-ri,석정리,석정리,3900724,882630,882686,0494,전라남도 화순군 춘양면 화림리 665,경전선,34.9552550610288,126.96205176276,예
석포,Seokpo,석포,석포,3900563,600768,600768,0108,경상북도 봉화군 석포면 석포로 134,영동선,37.045743132484134,129.06039823081667,아니오
석항,Seokhang,석항,석항,3900607,650484,650484,0118,강원특별자치도 영월군 중동면 석항역길 15,태백선,37.19743738482001,128.62283906521478,아니오
선릉,Seolleung,선릉,선릉,3900473,230058,230067,0895,서울특별시 강남구 테헤란로 지하 340,분당선,37.50468524570677,127.04893128060968,아니오
선바위,Seonbawi,선바위,선바위,3900472,220124,220124,0866,경기도 과천시 중앙로 지하 440,과천선,37.45181962004792,127.00219253067802,아니오
선부,Seonbu,선부,선부,3901081,270175,270356,,경기도 안산시 단원구 선부광장로 34 (선부동 1074-1),서해선,37.33439899908307,126.80999295361465,아니오
선장,Seonjang,선장,선장,3900326,080282,080278,0242,충청남도 아산시 선장면 신성리 264-2,장항선,36.7681136286056,126.883947352597,예
선정릉,Seonjeongneung,선정릉,선정릉,3901001,230060,230060,,서울특별시 강남구 선릉로 지하 580,분당선,37.5108535531421,127.043641032666,아니오
선평,Seonpyeong,선평,선평,3900589,610137,610137,0199,강원특별자치도 정선군 남면 선평길 7,정선선,37.32166730676176,128.71257039613144,아니오
성균관대,Sungkyunkwan Univ.,성균관대,성균관,3900045,010368,010368,0830,경기도 수원시 장안구 서부로 2149,경부선,37.30034476417817,126.97099887202549,아니오
성남,Seongnam (Gyeonggang Line),성남,성남,3901128,250015,250007,,경기도 성남시 분당구 백현동 545-1,경강선,37.39475405036688,127.11956035381031,아니오
성북차분,,성북차분,성북차,3900873,A30182,A30182,,,,,,아니오
성산,Seongsan,성산,성산,3900272,041646,041508,0382,전라남도 순천시 해룡면 남가2길 40,",전라선,전경삼각",34.92487608830147,127.54602884394369,아니오
성수,Seongsu,성수,성수,3900750,910054,910054,,서울특별시 성동구 아차산로 100,서울 지하철 2호선,37.5445023533666,127.056090470158,아니오
성신여대,Seongshin Women Univ.,성신여대,성신여,3900839,940120,940120,,서울특별시 성북구 동소문로 102,서울 지하철 4호선,37.59281635461053,127.01683162818418,아니오
성주사,Seongjusa,성주사,성주사,3900664,810128,810128,0467,경상남도 창원시 성산구 성주로 1,진해선,35.18782940848005,128.69239100580904,아니오
성환,Seonghwan,성환,성환,3900058,010848,010844,0248,충청남도 천안시 서북구 성환읍 성환1로 237-5,경부선,36.9161089747329,127.126858984345,아니오
세류,Seryu,세류,세류,3900048,010444,010444,0614,경기도 수원시 권선구 정조로 387,경부선,37.24412256887659,127.01372479249429,아니오
세마,Sema,세마,세마,3900050,010511,010511,,경기도 오산시 세마역로 88,경부선,37.18717358272272,127.04341839263114,아니오
세종대왕릉,Sejongdaewangneung,세종대왕릉,세종릉,3900968,250502,250494,,경기도 여주시 능서면 양화로 877,경강선,37.29367431934471,127.57070111754363,아니오
세천,Secheon,세천,세천,3900074,011742,011736,0237,대전광역시 동구 세천로 59,경부선,36.33645893702185,127.49041279596483,아니오
센텀,Centum,센텀,센텀,3900627,750161,750140,0455,부산광역시 해운대구 해운대로 210,동해선,35.1794513213801,129.124562683183,아니오
소래포구,Soraepogu,소래포구,소래포,3900990,100049,100049,,인천광역시 남동구 소래역로 51,수인선,37.4009294005465,126.733519768217,아니오
소사,Sosa,소사,소사,3900303,060110,060084,0806,경기도 부천시 소사로 272,경인선,37.4827477578301,126.795079157163,아니오
소새울,Sosaeul,소새울,소새울,3901074,270017,270199,,경기도 부천시 소사로 120 (소사본동 420-1),서해선,37.46856673567914,126.79726448333938,아니오
소요산,Soyosan,소요산,소요산,3900413,130556,130556,0411,경기도 동두천시 평화로 2925,경원선,37.94882916681197,127.06103980814977,아니오
소이,Soi,소이,소이,3900289,050641,050641,0260,충청북도 음성군 소이면 소이로 402,충북선,36.922533450996696,127.75573538281232,아니오
소정리,Sojeong-ri,소정리,소정리,3900062,011079,011074,0142,세종특별자치시 소정면 소정구길 159,경부선,36.718236225589536,127.15556464351069,아니오
솔안,Solan,솔안,솔안,3900996,601031,601031,,강원특별자치도 태백시 강원남부로 353,영동선,37.16709785437,129.025492845891,아니오
송내,Songnae,송내,송내,3900306,060148,060122,0809,경기도 부천시 송내대로 43,경인선,37.4876750183286,126.75277208908,아니오
송도,Songdo,송도,송도,3900988,100131,100131,,인천광역시 연수구 비류대로 175,수인선,37.4299356700695,126.654626978014,아니오
송도교,Songdogyo,송도교,송도교,0000924,R00001,R00001,,인천광역시 남동구 고잔동 975,광명공항셔틀,37.391678732254036,126.66784920397818,아니오
송정,Songjeong,송정,송정,3900630,750254,750228,0188,부산광역시 해운대구 해운대로 1147,동해선,35.187570,129.201991,아니오
송천,Songcheon,송천,송천,3900247,040208,040208,0367,전북특별자치도 전주시 덕진구 송천동2가 437-11,전라선,35.870127429856,127.121372246686,예
송추,Songchu,송추,송추,3900445,150231,150231,0425,경기도 양주시 장흥면 호국로597번길 23,서울교외선,37.72085882568181,126.97937658332776,아니오
송탄,Songtan,송탄,송탄,3900054,010648,010643,0225,경기도 평택시 송탄공원로 43,경부선,37.0752835515864,127.054299852026,아니오
송포,Songpo,송포,송포,3900188,023501,023367,0337,경상북도 영천시 북안면 송포리 325-1,중앙선,35.943600365629166,128.97596890678682,예
송학,Songhak,송학,송학,3900599,650098,650098,0447,충청북도 제천시 송학면 송학로 282,태백선,37.186746369926524,128.2702671906522,예
수내,Sunae,수내,수내,3900487,230264,230273,0874,경기도 성남시 분당구 성남대로 지하 491,분당선,37.3784530692819,127.114295659971,아니오
수도권철도차량정비단,Metropolitan Train Vehicle Maintenance Workshop,수도권철도차량정비단,수단일반,3900942,X00001,X00001,,경기도 고양시 덕양구 행주로 108-1,,37.6100314333326,126.825058749658,아니오
수리산,Surisan,수리산,수리산,3900453,210034,210034,,경기도 군포시 번영로 385,안산선,37.35063637818701,126.92566134694216,아니오
수색,Susaek,수색,수색,3900358,110082,110081,0387,서울특별시 은평구 수색로 261-1,",경의선,수색직결",37.58073185838836,126.89558493731222,아니오
수색연결,Susaek Junction,수색연결,수색연,3901019,SL0008,SL0008,,서울특별시 은평구 수색동 408-1,",경의선,수색직결",37.588236451489486,126.885155114531,아니오
수색차량사업소,Susaek Junction,수색차량사업소,수색차,3900940,A10082,A10082,,서울특별시 마포구 상암동 1232,,37.5780547971446,126.897622733808,아니오
수서,Suseo (Bundang),수서,수서,3900479,230124,230133,0551,서울특별시 강남구 광평로 지하 270,분당선,37.4873898885833,127.101859891647,아니오
수서기지,Suseo Depot,수서기지,수서기,3900881,B30012,B30012,,서울특별시 강남구 밤고개로5길 46-13,시흥기지선,37.4855001837422,127.107843663632,아니오
수서분기,Suseo HSR Junction,수서분기,수서분,3901129,H30043,H30043,,,",수서평택고속선,GTX-",37.447387913,127.118652399,아니오
수안보온천,Suanbo oncheon,수안보온천,수안온,3901139,280751,280751,0545,,중부내륙선,,,아니오
수원,Suwon,수원,수원,3900047,010415,010415,0003,경기도 수원시 팔달구 덕영대로 924,경부선,37.26545557079705,127.00017756226126,아니오
수원시청,Suwon City Hall,수원시청,수원시,3901012,230500,230500,,경기도 수원시 권선구 효원로 지하 270,분당선,37.2618438200964,127.031256526282,아니오
수유,Suyou,수유,수유,3900835,940064,940064,,서울특별시 강북구 도봉로 지하 338,서울 지하철 4호선,37.6377452757254,127.025356735024,아니오
숙대입구,Sukmyeong Women Univ.,숙대입구,숙대입,3900848,940207,940207,,서울특별시 용산구 한강대로 지하 306,서울 지하철 4호선,37.544642528560225,126.97210113620433,아니오
순열소,,순열소,순열소,3900012,000031,000031,,,,,,아니오
순지청,,순지청,순지청,3900003,000003,000003,,,,,,아니오
순천,Suncheon,순천,순천,3900271,041595,041456,0051,전라남도 순천시 팔마로 135,",전라선,경전",34.945066047534525,127.50563741856291,아니오
순천차량사업소,Suncheon Depot,순천차량사업소,순천차,3900944,A41595,A41595,,전라남도 순천시 덕암길 40,,34.94640748503,127.505788561723,아니오
숭의,Sungui,숭의,숭의,3901048,100173,100173,,인천광역시 미추홀구 숭의동 440-16,수인선,37.46080371750333,126.63842715556699,아니오
승문,Seungmun,승문,승문,3900166,022263,022180,0628,경상북도 영주시 문수면 문평로 261,중앙선,36.74347727227654,128.6304606630742,예
승부,Seungbu,승부,승부,3900562,600692,600692,0161,경상북도 봉화군 석포면 승부길 1162-5,영동선,36.993130800763616,129.083798948394,아니오
시우,Siu,시우,시우,3901083,270205,270387,,경기도 안산시 단원구 원시동 804,서해선,37.31315586547043,126.79568585106163,아니오
시청,Seoul City Hall,시청,시청,3900737,900011,900011,,서울특별시 중구 서소문로 지하 127,서울 지하철 1호선,37.56526295467761,126.97719540622184,아니오
시흥기지,Siheung Depot,시흥기지,시흥기,3900880,B20014,B20014,,경기도 시흥시 봉화로 55,시흥기지선,37.3817517098692,126.74436731791,아니오
시흥능곡,Siheungneunggok,시흥능곡,시흥능,3901079,270135,270316,,경기도 시흥시 시흥대로 327 (능곡동 717),서해선,37.3699199491357,126.80871802109903,아니오
시흥대야,Siheungdaeya,시흥대야,시흥대,3901075,270038,270220,,경기도 시흥시 서해안로 1670번길 6 (대야동 289-21),서해선,37.45005251631949,126.79296341286506,아니오
시흥시청,Siheung City Hall (Seohae Line),시흥시청,시흥청,3901078,270122,270303,,경기도 시흥시 시흥대로 467 (광석동 397),서해선,37.381556667510594,126.80595036794406,아니오
시흥연결,Siheung Connecting Line Junction,시흥연결,시흥연,3900882,H10193,H10000,,서울특별시 금천구 시흥동 765,경부고속선,37.451113877154,126.89598575465371,아니오
시흥차량사업소,Siheung Depot,시흥차량사업소,시흥차,3900941,A10260,A10260,,경기도 시흥시 봉화로 55,,37.3817517098692,126.74436731791,아니오
신갈,Singal,신갈,신갈,3900985,230372,230381,,경기도 용인시 기흥구 기흥로 지하 136,분당선,37.2862211269062,127.111247137416,아니오
신거,Singeo,신거,신거,3900103,013685,013674,0318,경상북도 청도군 청도읍 새마을1길 32,경부선,35.5985260856998,128.765416354929,아니오
신경주분기,Singyeongju HSR Junction,신경주분기,신경분,3901031,H13375,H13119,0998,경상북도 경주시 건천읍 방내리 244-1,",경부고속선,건천연결",35.8214445120154,129.098577574722,아니오
신공덕,Singongdeok,신공덕,신공덕,3900421,140021,140021,0277,서울특별시 노원구 공릉동 429-1,경춘선,37.6289402193985,127.074664216935,예
신광명,,신광명,신광명,3901179,480167,480167,,,,,,아니오
신광양항,Singwangyanghang,신광양항,신광양,3900893,560062,560062,,전라남도 광양시 컨부두로 111,신광양항선,34.89984585598302,127.65146645803674,아니오
신기,Singi,신기,신기,3900576,601275,601266,0263,강원특별자치도 삼척시 신기면 신기역길 89,영동선,37.34598786411894,129.08524352122177,아니오
신길,Singil,신길,신길,3900029,010081,010081,0822,서울특별시 영등포구 영등포로 327,경부선,37.516797004151634,126.91845542947853,아니오
신길온천,Silgiloncheon,신길온천,신길온,3900462,210217,210217,0888,경기도 안산시 단원구 황고개로 2,안산선,37.337579305608,126.767149255014,아니오
신김포공항,Gimpo Airport (Seohae Line),신김포공항,신김포,3901126,270089,270093,,서울특별시 강서구 하늘길 지하 77,서해선,37.560807353,126.804434316,아니오
신내,Sinnae,신내,신내,3900924,140022,140021,,서울특별시 중랑구 신내역로 20,경춘선,37.6127895827334,127.103221871627,아니오
신녕,Sinnyeong,신녕,신녕,3900184,023279,023145,0182,경상북도 영천시 신녕면 장수로 1587,중앙선,36.033269074156784,128.791399611152,예
신능곡,Neunggok (Seohae Line),신능곡,신능곡,3901125,270164,270108,,경기도 고양시 덕양구 토당로 35,서해선,37.619184431,126.821013810,아니오
신답,Sindap,신답,신답,3900748,910021,910021,,서울특별시 성동구 천호대로 232,서울 지하철 2호선,37.5699912240029,127.046819902915,아니오
신당,Sindang,신당,신당,3900788,910496,910496,,서울특별시 중구 퇴계로 431-1,서울 지하철 2호선,37.5656548600944,127.019540709601,아니오
신대곡,Daegok (Seohae Line),신대곡,신대곡,3901127,270182,270000,,경기도 고양시 덕양구 대주로107번길 71-81,서해선,37.631956474,126.809858189,아니오
신대방,Sindaebang,신대방,신대방,3900770,910304,910304,,서울특별시 동작구 대림로 2,서울 지하철 2호선,37.4875665603639,126.913159774272,아니오
신대신호소,Sindae Signal Box,신대신호소,신대신,3901033,P10025,P10025,,경기도 평택시 신대동 240-10,",평택선,평택삼각",36.9995808168097,127.061380459938,아니오
신도,Sindo,신도,신도,3900200,030280,030280,0345,충청남도 계룡시 엄사면 양정향한길 12,호남선,36.28343826854333,127.24157662628618,예
신도림,Sindorim,신도림,신도림,3900031,010106,010106,0823,서울특별시 구로구 경인로 688,경부선,37.508913894910755,126.89131927918511,아니오
신동,Sindong,신동,신동,3900093,013067,013059,0223,경상북도 칠곡군 지천면 신동로7길 37,",경부선,신동화물",35.95543912353264,128.48625731325134,아니오
신동연결,Sindong Connecting Line Junction,신동연결,신동연,3901111,HT0000,HT0000,,경상북도 칠곡군 지천면 덕산리 489-2,",경부고속선,신동연결",35.965164509,128.490089286,아니오
신동화물,Sindonghwamul,신동화물,신동화,3900543,430047,430047,,경상북도 칠곡군 지천면 금호로 272,신동화물선,35.9599587325577,128.451741212937,아니오
신둔도예촌,Sindundoyechon,신둔도예촌,도예촌,3900965,250309,250301,,경기도 이천시 신둔면 남정로 55,경강선,37.31556712289,127.405243123631,아니오
신례원,Sinryewon,신례원,신례원,3900327,080353,080297,0078,충청남도 예산군 예산읍 신례원로212번길 19-12,장항선,36.72699025651272,126.8493908906689,아니오
신리,Sin-li,신리,신리,3900250,040352,040352,0369,전북특별자치도 완주군 상관면 신리 509-6,전라선,35.77339285174256,127.20679379652533,아니오
신림,Sinlim,신림,신림,3900148,021357,021254,0174,강원특별자치도 원주시 신림면 정암길 12,중앙선,37.218325638430215,128.09114974934045,예
신망리,Sinmang-ri,신망리,신망리,3900418,130774,130774,0416,경기도 연천군 연천읍 연신로483번길 1,경원선,38.132548568177725,127.0784780988629,아니오
신보성,Boseong (new),신보성,신보성,3901173,470804,470000,0569,전라남도 보성군 보성읍 우산리 83-5,",경전선,목포보성",34.759422813326346,127.08587775376193,아니오
신사,Sinsa,신사,신사,3900814,930213,930213,,서울특별시 강남구 도산대로 지하 102,서울 지하철 3호선,37.5164318791198,127.020326779905,아니오
신선대,Sinseondae,신선대,신선대,3900680,870061,870061,0729,부산광역시 남구 북항로 97,우암선,35.10826125184894,129.08599657009137,아니오
신설동,Sinseoldong,신설동,신설동,3900743,900059,900059,0285,서울특별시 동대문구 왕산로 지하 1,서울 지하철 1호선,37.576011506485045,127.0244153747119,아니오
신성,Sinseong,신성,신성,3900333,080666,080597,,충청남도 홍성군 홍성읍 대학길 179,장항선,36.56783603167148,126.6622642922913,아니오
신소사,Sosa (Seohae Line),신소사,신소사,3901072,270000,270182,,경기도 부천시 소사로 284 (소사동 43-51),서해선,37.482492657425986,126.7951380226608,아니오
신수원,Suwon (Bundang Line),신수원,신수원,3901014,230529,230529,,경기도 수원시 팔달구 덕영대로 924,분당선,37.266530235402,126.998857883846,아니오
신시흥시청,Siheung City Hall (Gyeonggang Line),신시흥시청,신시흥,3901178,480068,480068,,,경강선,,,아니오
신신천,Sincheon (Seohae Line),신신천,신신천,3901076,270052,270234,,경기도 시흥시 신천로 지하 92,서해선,37.4392608996271,126.78677825922806,아니오
신신현,Sinhyeon (Seohae Line),신신현,신신현,3901077,270102,270267,,경기도 시흥시 시흥대로 819 (미산동 700-1),서해선,37.40956533043598,126.78784514476824,아니오
신안양,,신안양,신안양,3901181,480223,480223,,,,,,아니오
신암,Sinam,신암,신암,3900083,012415,012407,,경상북도 김천시 봉산면 신암1길 50-69,경부선,36.162278568124904,128.01069922816467,아니오
신용산,Sinyongsan,신용산,신용산,3900850,940226,940226,,서울특별시 용산구 한강대로 지하 112,서울 지하철 4호선,37.52927943251196,126.968005758679,아니오
신원,Sinwon,신원,신원,3900127,020393,020359,0322,경기도 양평군 양서면 신원역길 7,중앙선,37.5255265578252,127.373060483252,아니오
신이매,Imae (Gyeonggang Line),신이매,신이매,3900960,250023,250015,,경기도 성남시 분당구 이매동 129-2,경강선,37.394725754436685,127.12724810010673,아니오
신이문,Sinimun,신이문,신이문,3900391,130157,130157,0839,서울특별시 동대문구 한천로 472,경원선,37.601711383303595,127.06736849711145,아니오
신인덕원,Indeogwon (Gyeonggang Line),신인덕원,신인덕,3901183,480277,480277,,,경강선,,,아니오
신인천,Incheon (Suin Line),신인천,신인천,3901050,100199,100199,,인천광역시 중구 차이나타운로26번길 12-17,수인선,37.47643303918891,126.61740306111018,아니오
신정네거리,Sinjeongnegeori,신정네거리,신정네,3900795,920046,920046,,서울특별시 양천구 중앙로 지하 261,서울 지하철 2호선 신정지선,37.5197990810285,126.852992548128,아니오
신진영,Jinyeong,신진영,신진영,3900900,880140,8A0140,0510,,경전선,,,아니오
신창,Sinchang,신창,신창,3900323,080216,080194,0281,충청남도 아산시 신창면 행목로 50,장항선,36.7695092489691,126.95106106404353,아니오
신창원,Sinchangwon,신창원,신창원,3900662,810048,810048,0465,경상남도 창원시 의창구 차상로150번길 76,진해선,35.23321175044354,128.63975601396197,아니오
신천,Sincheon,신천,신천,3900756,910131,910131,,서울특별시 송파구 올림픽로 지하 140,서울 지하철 2호선,37.5115675138814,127.086373999938,아니오
신초지,Choji (Seohae Line),신초지,신초지,3901082,270191,270373,,경기도 안산시 단원구 중앙대로 620,서해선,37.31971318405374,126.80781868192804,아니오
신촌,Sincheon,신촌,신촌,3900355,110031,110031,0385,서울특별시 서대문구 신촌역로 30,경의선,37.559682826365226,126.94215099521153,아니오
신탄리,Sintan-ri,신탄리,신탄리,3900420,130888,130888,0265,경기도 연천군 신서면 고대산길 4,경원선,38.21263208635223,127.1391926324156,아니오
신탄진,Sintanjin,신탄진,신탄진,3900070,011524,011519,0009,대전광역시 대덕구 신탄진로 807,경부선,36.449636829326955,127.4281850017958,아니오
신태인,Sintaein,신태인,신태인,3900216,031179,031179,0032,전북특별자치도 정읍시 신태인읍 정신로 1163,호남선,35.68806943936877,126.88399472887579,아니오
신판교,Pangyo (Gyeonggang Line),신판교,신판교,3900959,250007,250000,0536,경기도 성남시 분당구 판교역로 160,경강선,37.3947750884379,127.110949861363,아니오
신포,Sinpo,신포,신포,3901049,100188,100188,,인천광역시 중구 우현로 지하 3,수인선,37.468371068495,126.624560702076,아니오
신풍,Sinpung,신풍,신풍,3900274,041763,041614,0384,전라남도 여수시 율촌면 여순로 458-1,전라선,37.5001172648423,126.909841512117,예
신해운대,Sinhaeundae,신해운대,신해운,3900629,750189,750199,0127,부산광역시 해운대구 장산로 427,동해선,35.1816965744224,129.177031594245,아니오
신현,Sinhyeon,신현,신현,3900528,310154,310154,0703,경상북도 문경시 마성면 신현리 2-2,문경선,36.6766570097537,128.128386427382,아니오
신흥리,Sinheung-ri,신흥리,신흥리,3900222,031543,031543,0356,전라남도 장성군 북일면 오산리 44-17,호남선,35.3845044338091,126.79766810943,예
심천,Simcheon,심천,심천,3900078,012016,012008,0245,충청북도 영동군 심천면 심천로5길 5,경부선,36.23738996468621,127.7201807112521,아니오
심포리,Simpo-ri,심포리,심포리,3900569,601034,601034,0716,강원특별자치도 삼척시 도계읍 심포남길 113,영동선,37.18594314310712,129.0382029655567,예
쌍룡,Ssangnyong,쌍룡,쌍룡,3900601,650177,650177,0116,강원특별자치도 영월군 한반도면 용정원길 9,태백선,37.174800353685136,128.32888969512274,아니오
쌍문,Ssangmun,쌍문,쌍문,3900834,940049,940049,,서울특별시 도봉구 도봉로 지하 486-1,서울 지하철 4호선,37.6488482879582,127.034879828177,아니오
쌍용나사렛,Ssangyong,쌍용나사렛,쌍용나,3900319,080029,080029,,충청남도 천안시 서북구 쌍용19로 20,장항선,36.7937241002089,127.121350265204,아니오
아미,Ami,아미,아미,3901108,260037,280029,,경기도 이천시 부발읍 아미리,중부내륙선,37.26207005480302,127.50911123156024,아니오
아산,Asan,아산,아산,3900320,080045,080045,0503,충청남도 아산시 배방읍 희망로 90,장항선,36.7920475946957,127.104115015054,아니오
아신,Asin,아신,아신,3900129,020471,020429,0324,경기도 양평군 옥천면 아신역1길 23,중앙선,37.51392363045285,127.44319173472542,아니오
아우라지,Auraji,아우라지,아우라,3900592,610387,610387,0202,강원특별자치도 정선군 여량면 여량6길 17,정선선,37.472900026522,128.7208991156669,아니오
아중,Ajung,아중,아중,3900249,040281,040281,0368,전북특별자치도 전주시 덕진구 동부대로 420,전라선,35.8295211443979,127.176137627925,예
아포,Apo,아포,아포,3900087,012700,012692,0311,경상북도 김천시 아포읍 국사길 140-19,경부선,36.158282554483016,128.257729243324,아니오
아현동,Ahyeon-dong,아현동,아현동,3900781,910437,910437,,서울특별시 마포구 신촌로 지하 270,서울 지하철 2호선,37.5571203282779,126.955710425363,아니오
아화,Ahwa,아화,아화,3900190,023601,023467,0339,경상북도 경주시 서면 심곡로 41,중앙선,35.898311305498645,129.05162787954214,아니오
안강,An-gang,안강,안강,3901038,8B0190,751337,0534,경상북도 경주시 안강읍 갑산리 900-2,동해선,35.9704135572676,129.233226382309,아니오
안국,Anguk,안국,안국,3900805,930122,930122,,서울특별시 종로구 율곡로 지하 62,서울 지하철 3호선,37.5767210681084,126.985823116051,아니오
안동,Andong,안동,안동,3901102,022558,022558,0526,경상북도 안동시 송현동 648,중앙선,36.57498647660945,128.67486019270646,아니오
안동열주,,안동열주,안동열,3900017,000043,000043,,,,,,아니오
안락,Allak,안락,안락,3900625,750119,750107,0453,부산광역시 동래구 안연로98번길 57,동해선,35.1960212179166,129.100548998053,아니오
안산,Ansan,안산,안산,3900461,210195,210195,0858,경기도 안산시 단원구 중앙대로 462,안산선,37.3271258064744,126.788591517064,아니오
안산차량,Ansan Depot,안산차량,안산차,3900867,A10231,A10231,,,,,,아니오
안양,An-yang,안양,안양,3900039,010239,010239,0135,경기도 안양시 만안구 만안로 232,경부선,37.401434634351,126.923002981072,아니오
안양운동장,Anyang Stadium,안양운동장,안양운,3901182,480252,480252,,,경강선,,,아니오
안인,Anin,안인,안인,3900586,601845,601836,0444,강원특별자치도 강릉시 강동면 대동길 151,영동선,37.73786887844233,128.97881151191092,아니오
안정,Anjeong,안정,안정,3900162,022115,021997,0626,경상북도 영주시 안정면 안정로60번길 128,중앙선,36.84480324850918,128.57410244484834,예
안중,Anjung,안중,안중,3901145,460378,460378,0540,경기도 평택시 안중읍 송담리 산 13-1,",서해선,평택",36.971379675534344,126.93875851160303,아니오
안평,Anpyeong,안평,안평,3900223,031601,031601,0357,전라남도 장성군 장성읍 잠암길 7,",호남선,장성화물",35.33206562474738,126.77951815584044,아니오
압구로데오,Apgujeongrodeo,압구로데오,로데오,3900999,230041,230041,,서울특별시 강남구 압구정로 지하 402,분당선,37.5272934293339,127.040512750612,아니오
압구정,Apgujeong,압구정,압구정,3900813,930198,930198,,서울특별시 강남구 압구정로 지하 172,서울 지하철 3호선,37.526818951209,127.028189566374,아니오
압록,Amnok,압록,압록,3900264,041196,041086,0273,전라남도 곡성군 오곡면 섬진강로 1097,전라선,35.20084251500293,127.37279235802563,아니오
앙성온천,AngseongOncheon,앙성온천,앙성온,3901116,280358,280358,0532,충청북도 충주시 앙성면 돈산리 300-3,중부내륙선,37.091880665097065,127.78726813243382,아니오
앵남,Aengnam,앵남,앵남,3900728,882809,882865,0496,전라남도 화순군 화순읍 지강로 646,경전선,35.0504047684113,126.906278168681,예
야당,Yadang,야당,야당,3901041,110289,110289,,경기도 파주시 소리천로 10,경의선,37.71263219640508,126.76145788482506,아니오
야목,Yamok,야목,야목,3901092,101120,101120,,경기도 화성시 매송면 야목리 792-2,수인선,37.2617477129974,126.883251651389,아니오
야탑,Yatap,야탑,야탑,3900484,230222,230231,0872,경기도 성남시 분당구 성남대로 지하 903,분당선,37.411370476071504,127.12875315147713,아니오
약목,Yagmok,약목,약목,3900090,012903,012895,0230,경상북도 칠곡군 약목면 칠곡대로 635,경부선,36.03781209207173,128.36384310457527,아니오
약수,Yaksu,약수,약수,3900810,930161,930161,,서울특별시 중구 다산로 지하 122,서울 지하철 3호선,37.5545595077178,127.010822839027,아니오
양동,Yangdong,양동,양동,3900137,020845,020753,0171,경기도 양평군 양동면 양동역길 19,중앙선,37.4202989125633,127.75467956308577,아니오
양보,Yangbo,양보,양보,3900704,881323,881220,0486,경상남도 하동군 양보면 하성길 13-6,경전선,35.089672580479,127.843749984562,예
양산화물,Yangsanhwamul,양산화물,양산화,3900678,860035,860035,,경상남도 양산시 물금읍 증산리 1609,양산화물선,35.3020110573105,129.011562455205,아니오
양수,Yangsu,양수,양수,3900126,020346,020312,0269,경기도 양평군 양서면 목왕로 55-10,중앙선,37.546002846617,127.32905764583181,아니오
양원,Yangwon,양원,양원,3900561,600655,600655,0731,경상북도 봉화군 소천면 분천리 113-2,영동선,36.96401309526134,129.09148124755345,아니오
양자동,Yangjadong,양자동,양자동,3900652,751325,751299,0463,경상북도 경주시 강동면 인동리 727-2,동해남부선,35.990889,129.255040,예
양재,Yangjae,양재,양재,3900819,930277,930277,,서울특별시 서초구 남부순환로 지하 2585,서울 지하철 3호선,37.4839350146888,127.034543959569,아니오
양정,Yangjeong,양정,양정,3900511,300479,300479,0427,경상북도 상주시 외서면 연봉리 125-2,경북선,36.50814495408144,128.16744097318414,예
양주,Yangju,양주,양주,3900405,130354,130353,0407,경기도 양주시 평화로 919,경원선,37.77419171738338,127.0447156742423,아니오
양천구청,Yangcheon-gu Office,양천구청,양천구,3900794,920027,920027,,서울특별시 양천구 목동로3길 지하 33,서울 지하철 2호선 신정지선,37.5126974758134,126.866064234206,아니오
양평,Yangpyeong,양평,양평,3900130,020524,020479,0091,경기도 양평군 양평읍 역전길 30,중앙선,37.49284125777156,127.4918884886794,아니오
양학동,Yanghak-dong,양학동,양학동,3900655,751446,751446,0725,경상북도 포항시 북구 학잠동 60-3,동해남부선,36.0258481967295,129.351619889592,예
어등,Eodeung,어등,어등,3900523,301016,301016,0206,경상북도 예천군 보문면 옥계천로 610-10,경북선,36.71495978043642,128.5598962495535,아니오
어천,Eocheon,어천,어천,3901091,101094,101094,,경기도 화성시 매송면 화성로 2227,수인선,37.2497828505126,126.909057466453,아니오
업동,Eop-dong,업동,업동,3900176,022801,022667,0630,경상북도 의성군 의성읍 업동길 69-13,중앙선,36.38616685026646,128.68579190815774,예
여수엑스포,Yeosu EXPO,여수엑스포,엑스포,3900279,041993,041804,0053,전라남도 여수시 망양로 2,전라선,34.75480313351758,127.74908610714564,아니오
여수차량사업소,Yeosu Depot,여수차량사업소,여수차,3900951,A41993,A41993,,전라남도 여수시 망양로 2,,34.754367616193534,127.74954906629743,아니오
여주,Yeoju,여주,여주,3900969,250556,250548,,경기도 여주시 교동로 80,경강선,37.28293881632769,127.62846712938618,아니오
여천,Yeocheon,여천,여천,3900276,041866,041709,0139,전라남도 여수시 시청로 200,전라선,34.77945254187589,127.66431393339954,아니오
역곡,Yeokgok,역곡,역곡,3900302,060095,060069,0805,경기도 부천시 역곡로 1,경인선,37.4852872521451,126.811870585481,아니오
역삼,Yeoksam,역삼,역삼,3900760,910178,910178,,서울특별시 강남구 테헤란로 지하 156,서울 지하철 2호선,37.5007163091028,127.036618370344,아니오
연교,Yeongyo,연교,연교,3900149,021393,021290,0625,충청북도 제천시 봉양읍 제원로11길 77-16,중앙선,37.18772767925422,128.09624724373927,예
연당,Yeondang,연당,연당,3900602,650253,650253,0195,강원특별자치도 영월군 남면 영월로 792-9,태백선,37.184836597289,128.39593860019755,아니오
연무대,Yeonmudae,연무대,연무대,3900534,340090,340090,0220,충청남도 논산시 연무읍 왕릉로70번길 55-1,강경선,36.12401976875033,127.08812259514255,아니오
연산,Yeonsan,연산,연산,3900202,030396,030396,0026,충청남도 논산시 연산면 선비로275번길 31-2,호남선,36.21223259096612,127.20145618210239,아니오
연수,Yeonsu,연수,연수,3900995,100104,100104,,인천광역시 연수구 벚꽃로 115,수인선,37.4178037425249,126.678964026142,아니오
연신내,Yeonsinnae,연신내,연신내,3900798,930035,930035,,서울특별시 은평구 불광동 487-2,서울 지하철 3호선,37.61978472416,126.920612152567,아니오
연천,Yeoncheon,연천,연천,3900417,130738,130738,0415,경기도 연천군 연천읍 연천로 273-7,경원선,38.101222412200165,127.07379297423945,아니오
연풍,Yeonpung,연풍,연풍,3901140,280814,280814,0546,,중부내륙선,,,아니오
연하,Yeonha,연하,연하,3900606,650417,650417,0448,강원특별자치도 영월군 영월읍 복덕원길 14-12,태백선,37.19139586721041,128.55642397205506,아니오
연화,Yeonhwa,연화,연화,3900092,013030,013022,0313,경상북도 칠곡군 지천면 칠곡대로 2054-3,경부선,35.964840865279704,128.44770293498075,아니오
영덕,Yeondeok,영덕,영덕,3901068,8B0737,751883,0523,경상북도 영덕군 영덕읍 우곡리 269,동해선,36.409634113697955,129.3783880769548,아니오
영동,Yeongdong,영동,영동,3900080,012124,012116,0011,충청북도 영동군 영동읍 계산로 87,경부선,36.172579633922304,127.78602381677017,아니오
영등포,Yeongdeungpo,영등포,영등포,3900030,010091,010091,0002,서울특별시 영등포구 경인로 846,경부선,37.5156682335743,126.907665973024,아니오
영암,Yeong-am,영암,영암,3901168,470133,470659,0564,전라남도 영암군 학산면 은곡리 235-15,목포보성선,34.75912152104341,126.53079693763293,아니오
영열소,,영열소,영열소,3900015,000041,000041,,,,,,아니오
영월,Yeongwol,영월,영월,3900604,650341,650341,0117,강원특별자치도 영월군 영월읍 영월로 2106,태백선,37.18212974097331,128.48103172148956,아니오
영일만항,Yeongilmanhang,영일만항,영일만,3901087,360112,360112,,경상북도 포항시 북구 흥해읍 용한리 853-1,영일만항선,36.1045109848242,129.433177934444,아니오
영종,Yeongjong,영종,영종,3901017,C10475,C10475,,인천광역시 중구 백운로414번길 75,공항철도,37.511904232238095,126.52464702506816,아니오
영주,Yeongju,영주,영주,3900164,022188,022070,0098,경상북도 영주시 선비로 64,",중앙선,영동선,경북",36.8111877454928,128.62573270065076,아니오
영주차량사업소,Yeongju Depot,영주차량사업소,영주차,3900949,A22188,A22188,,경상북도 영주시 구성로215번길 39,,36.8135561709903,128.626239948723,아니오
영지청,Yeongju Regional Headquarters,영지청,영지청,3900004,000004,000004,,,,,,아니오
영천,Yeongcheon,영천,영천,3900187,023449,023315,0103,경상북도 영천시 금완로 98,",중앙선,대구",35.9590638513636,128.93918115443532,아니오
영통,Yeongtong,영통,영통,3901004,230453,230453,,경기도 수원시 영통구 봉영로 1560 (영통동 1055),분당선,37.25144093388749,127.07125408398333,아니오
영해,Yeonghae,영해,영해,3901148,752029,752029,0611,경상북도 영덕군 영해면 벌영리 338,동해선,36.53839957554549,129.3969561983691,아니오
예당,Yedang,예당,예당,3900716,882194,882077,0075,전라남도 보성군 득량면 예당역전길 19,경전선,34.778860384153106,127.20300021647779,아니오
예미,Yemi,예미,예미,3900608,650515,650515,0119,강원특별자치도 정선군 신동읍 함백로 55,태백선,37.2125505180913,128.64765781137723,아니오
예산,Yesan,예산,예산,3900328,080402,080347,0079,충청남도 예산군 예산읍 역전로 83,장항선,36.68747464382318,126.8284889004107,아니오
예천,Yecheon,예천,예천,3900519,300850,300850,0162,경상북도 예천군 예천읍 역전길 4,경북선,36.6482136323894,128.445829183086,아니오
오가,Oga,오가,오가,3900329,080439,080382,0283,충청남도 예산군 오가면 역말로 40-16,장항선,36.6834040137268,126.796942018441,예
오근장,Ogeunjang,오근장,오근장,3900282,050215,050215,0134,충청북도 청주시 청원구 토성로 443,충북선,36.69920416829678,127.47704899338345,아니오
오금,Ogeum,오금,오금,3900829,930382,930382,,서울특별시 송파구 오금로 지하 321,서울 지하철 3호선,37.5022660665691,127.127879646574,아니오
오남,Onam,오남,오남,3901119,290121,290121,,경기도 남양주시 오남읍 양지리 723-4,수도권 전철 4호선,37.70523841453657,127.19103478105514,아니오
오류,Oryu,오류,오류,3900254,040590,040581,0371,전북특별자치도 임실군 성수면 오류리,전라선,35.600376306967206,127.32026440596485,예
오류동,Oryu-dong,오류동,오류동,3900300,060063,060037,0803,서울특별시 구로구 경인로20길 13,경인선,37.49440278714097,126.84459540960145,아니오
오리,Ori,오리,오리,3900490,230309,230318,,경기도 성남시 분당구 성남대로 지하 55,분당선,37.3399769373117,127.108948032761,아니오
오목천,Omokcheon,오목천,오목천,3901090,101043,101043,,경기도 수원시 권선구 오목천동 472-3,수인선,37.2431666420562,126.963600622311,아니오
오봉,Obong,오봉,오봉,3900447,180030,180044,,경기도 의왕시 오봉로 168,남부화물기지선,37.337023275487475,126.96191769521941,아니오
오빈,Obin,오빈,오빈,3900923,020457,020457,,경기도 양평군 양평읍 덕바위길 58,중앙선,37.506146545776176,127.4737500586868,아니오
오산,Osan,오산,오산,3900052,010570,010565,0141,경기도 오산시 역광장로 59,경부선,37.1455210824046,127.066791033288,아니오
오산대,Osan College,오산대,오산대,3900051,010538,010538,,경기도 오산시 청학로 236,경부선,37.1693001682283,127.063064261171,아니오
오산리,Osan-ri,오산리,오산리,3900353,320034,081519,0428,전북특별자치도 익산시 오산면 오산리 90-1,군산화물선,35.94132103584502,126.91265420536045,예
오송,Osong,오송,오송,3900280,050044,050044,0297,충청북도 청주시 흥덕구 오송읍 오송가락로 123,",경부고속선,호남고속선,충북선,오송선,오송기지",36.62050822639181,127.32702376639925,아니오
오송기지,Osong HSR B.C.,오송기지,오송기,3900904,HK0012,HK0012,,충청북도 청주시 흥덕구 오송읍 정중연제로 384,오송기지선,36.6326253246198,127.31138820016604,아니오
오수,Osu,오수,오수,3900256,040667,040636,0047,전북특별자치도 임실군 오수면 충효로 1967-19,전라선,35.54325488126809,127.32015017966646,아니오
오시리아,Osiria,오시리아,오시리,3901052,750239,750239,,부산광역시 기장군 기장읍 동부산관광5로 14,동해선,35.1962206355508,129.208263362783,아니오
오이도,Oido,오이도,오이도,3900464,210260,210260,0890,경기도 시흥시 역전로 430,안산선,37.3619277956344,126.738463976879,아니오
옥계,Okgye,옥계,옥계,3900584,601660,601651,0112,강원특별자치도 강릉시 옥계면 동해대로 291-14,영동선,37.616637559381964,129.05135033200642,아니오
옥곡,Okgok,옥곡,옥곡,3900708,881584,881481,0067,전라남도 광양시 옥곡면 옥진로 620,경전선,34.9897415232902,127.6948021662,예
옥구,Okgu,옥구,옥구,3900533,330116,330116,0706,전북특별자치도 군산시 옥구읍 옥구로 174,옥구선,35.9183029703314,126.667782785105,아니오
옥마,Ongma,옥마,옥마,3900448,190043,190043,,충청남도 보령시 명천동 768-11,남포선,36.3271851556924,126.620159468479,예
옥산,Oksan,옥산,옥산,3900507,300200,300200,0154,경상북도 상주시 공성면 산현1길 28,경북선,36.28316415847269,128.0949010124377,아니오
옥수,Oksu,옥수,옥수,3900385,130070,130071,0892,서울특별시 성동구 동호로 21,경원선,37.54050875706779,127.01868967929975,아니오
옥원,Okwon,옥원,옥원,3901157,752787,752787,0602,강원특별자치도 삼척시 원덕읍,동해남부선,37.18385618,129.32440244,아니오
옥정,Okjeong,옥정,옥정,3900225,031696,031696,0358,전라남도 장성군 황룡면 옥정리 511,호남선,35.258100564402696,126.7466173193107,예
옥천,Okcheon,옥천,옥천,3900075,011833,011825,0022,충청북도 옥천군 옥천읍 옥천로 1624,경부선,36.29748078938452,127.56542613909528,아니오
온릉,Olleung,온릉,온릉,3900444,150194,150194,,경기도 양주시 장흥면 일영리 산 16-13,서울교외선,37.7184055122793,126.948727760654,아니오
온산,Onsan,온산,온산,3900657,760086,760086,0726,울산광역시 울주군 온산읍 이진로 204-7,온산선,35.425023,129.351036,아니오
온수,Onsu,온수,온수,3900301,060085,060056,0804,서울특별시 구로구 부일로 872,경인선,37.4924736729596,126.824038739642,아니오
온양온천,Onyangoncheon,온양온천,온양온,3900322,080147,080143,0076,충청남도 아산시 온천대로 1496,장항선,36.780557950321395,127.00316747051754,아니오
옹정,Ongjeong,옹정,옹정,3900261,040975,040883,0376,전북특별자치도 남원시 금지면 입암리 149-21,전라선,35.35621241536289,127.29629469596465,아니오
옹천,Ongcheon,옹천,옹천,3900168,022373,022247,0099,경상북도 안동시 북후면 북평로 886-3,중앙선,36.67864479319957,128.69967887216444,아니오
와룡,Waryong,와룡,와룡,3900213,030985,030985,0351,전북특별자치도 김제시 용지면 소음방로 315,호남선,35.847905746823656,126.94093196246443,아니오
완사,Wansa,완사,완사,3900701,881168,881073,0484,경상남도 사천시 곤명면 경서대로 3435,경전선,35.13517887029973,127.97833214136318,아니오
왕십리,Wangsimni,왕십리,왕십리,3900387,130104,130103,0836,서울특별시 성동구 왕십리광장로 17,",경원선,분당",37.56145665219647,127.03856974800827,아니오
왜관,Waegwan,왜관,왜관,3900091,012968,012960,0014,경상북도 칠곡군 왜관읍 중앙로8길 10,경부선,35.99168344053631,128.40048417775014,아니오
외고산,Oegosan,외고산,외고산,3900910,750576,750576,0618,울산광역시 울주군 온양읍 고산리 491-2,동해남부선,35.4327065160824,129.280234754898,예
외대앞,Hankuk Univ. of Foreign Studies,외대앞,외대앞,3900390,130149,130149,0838,서울특별시 동대문구 휘경로 27,경원선,37.596271438461464,127.06369477385553,아니오
외동,Oedong,외동,외동,3900643,750933,750898,0212,경상북도 경주시 외동읍 구어리 318-8,동해선,35.707343451317804,129.32260353983074,아니오
용강신호소,Yonggang Signal Box,용강신호소,용강,3900935,880358,880352,,경상남도 창원시 의창구 동읍 용강리 458-13,",경전선,덕산",35.2713434221776,128.637864631723,아니오
용궁,Yonggung,용궁,용궁,3900515,300669,300669,0159,경상북도 예천군 용궁면 용궁로 80,경북선,36.60702104587386,128.27249367020033,아니오
용답,Yongdap,용답,용답,3900749,910031,910031,,서울특별시 성동구 살곶이길 159,서울 지하철 2호선,37.5625772625057,127.050568090616,아니오
용동,Yongdong,용동,용동,3900207,030667,030667,0347,전북특별자치도 익산시 용동면 용동1길 69,호남선,36.10918624555372,126.99053190551517,아니오
용문,Yongmun,용문,용문,3900132,020641,020585,0169,경기도 양평군 용문면 용문역길 21,중앙선,37.48209017305166,127.59428544504705,아니오
용문기지,Yongmun Depot,용문기지,용문차,3900987,1S0016,1S0027,,경기도 양평군 용문면 화전로105번길 76,용문기지선,37.4735449329914,127.613490800532,아니오
용산,Yongsan,용산,용산,3900025,010032,010032,0104,서울특별시 용산구 한강대로23길 55,",경부선,경원선,용산",37.529771938775,126.96474137477,아니오
용산경부분,Yongsan Gyeongbu Line Junction,용산경부분,용산부,3900026,010040,010040,,서울특별시 용산구 이촌동 198-1,",경부선,용산삼각",37.5242408003241,126.957052400406,예
용산경원분,Yongsan Gyeongwon Line Junction,용산경원분,용산원,3900381,130008,130008,,서울특별시 용산구 한강대로7길 17-16,",경원선,용산삼각",37.52374524428377,126.96121211083856,예
용산동차,Yongsan Multiple Unit Office,용산동차,용산동,3900865,A10032,A10032,,,,,,아니오
용암,Yong-am,용암,용암,3901097,700043,700043,,울산광역시 울주군 청량읍 용암리 산 36-5,울산신항선,35.4761582913734,129.321851266759,아니오
용유기지,Yongyu Depot,용유기지,용유차,3901021,C20035,C20035,,인천광역시 중구 용유로 44,용유기지선,37.42891490197701,126.42985272092935,아니오
우보,Ubo,우보,우보,3900180,023047,022913,0181,경상북도 군위군 우보면 동부로 1557-10,중앙선,36.18911329094111,128.66941877925845,예
우암,Uam,우암,우암,3900679,870024,870024,0665,부산광역시 남구 우암로 217,우암선,35.124888853534415,129.07319802082247,아니오
운길산,Ungilsan,운길산,운길산,3900125,020293,020293,0321,경기도 남양주시 조안면 운길산로 20,중앙선,37.5548034813732,127.309850308028,아니오
운산,Unsan,운산,운산,3900174,022699,022565,0179,경상북도 안동시 일직면 중앙통길 90-4,중앙선,36.46859887004283,128.65658160412968,예
운서,Unseo,운서,운서,3900933,C10511,C10511,0919,인천광역시 중구 흰바위로59번길 26,공항철도,37.4928500039736,126.49366588028,아니오
운정,Unjeong,운정,운정,3900369,110300,110304,0397,경기도 파주시 운정역길 368,경의선,37.72541017506771,126.76707145575821,아니오
운천,Uncheon,운천,운천,3900375,110497,110500,0733,경기도 파주시 문산읍 운천리 71-7,경의선,37.8796851529133,126.770180599315,아니오
운학,Unhak,운학,운학,3901100,021104,021104,,충청북도 제천시 백운면 구학산로 931,중앙선,37.200332752633756,127.99815469456519,아니오
울산,Ulsan,울산,울산,3900896,H13717,H13465,0509,울산광역시 울주군 삼남면 울산역로 177,경부고속선,35.55065705070066,129.1379694180834,아니오
울산기지,Ulsan Depot,울산기지,울산기,3901109,720014,720014,,울산광역시 울주군 청량읍 덕하리,울산기지선,35.474528822609415,129.29767669650136,아니오
울산신항,Ulsansinhang,울산신항,울산신,3901098,700098,700098,,울산광역시 남구 황성동 840-1,울산신항선,35.4659824997191,129.371301472946,아니오
울산항,Ulsanhang,울산항,울산항,3900659,780046,780046,0727,울산광역시 남구 장생포로 303,울산항선,35.5105958735665,129.374865665079,아니오
울진,Uljin,울진,울진,3901154,752540,752540,0605,경상북도 울진군 울진읍 읍남리 433-2,동해선,36.98199354502509,129.39535061221306,아니오
웅천,Ungcheon,웅천,웅천,3901104,081099,080997,0527,충청남도 보령시 웅천읍 대창리 98,장항선,36.235890247846974,126.6068201942491,아니오
원당,Wondang,원당,원당,3900496,240067,240067,0880,경기도 고양시 덕양구 고양대로 1429,일산선,37.6534332222439,126.84310495739,아니오
원덕,Wondeok,원덕,원덕,3900131,020585,020537,0214,경기도 양평군 양평읍 원덕흑천길 138,중앙선,37.46880908325582,127.54678213551334,아니오
원동,Wondong,원동,원동,3900108,014058,014032,0215,경상남도 양산시 원동면 원동마을길 13,경부선,35.3624533207049,128.92074234138835,아니오
원두,Wondu,원두,원두,3900449,200064,200064,,충청남도 서천군 서면 주원로 265-17,서천화력선,36.1684091384521,126.593641566486,아니오
원릉,Wolleung,원릉,원릉,3900439,150057,150057,0419,경기도 고양시 덕양구 원당로 130,서울교외선,37.662580367003514,126.83986505844473,아니오
원북,Wonbuk,원북,원북,3900691,880644,880720,0479,경상남도 함안군 군북면 사군로 1204-2,경전선,35.2335369774969,128.326195435036,예
원시,Wonsi,원시,원시,3901073,270220,270402,,경기도 안산시 단원구 원시동 803,서해선,37.30259804058923,126.78676991842491,아니오
원인재,Woninjae,원인재,원인재,3900994,100095,100095,,인천광역시 연수구 벚꽃로 195,수인선,37.4132724478407,126.686329610407,아니오
원정,Wonjeong,원정,원정,3900198,030207,030207,0344,대전광역시 서구 방앗간길 582,호남선,36.25402248082915,127.30508343780988,예
원종,Wonjong,원종,원종,3901123,270047,270135,,경기도 부천시 원종동 404,서해선,37.523822391681776,126.80484717725362,아니오
원주,Wonju,원주,원주,3901099,020947,020947,0525,강원특별자치도 원주시 복원로 1860,중앙선,37.31639798371097,127.92297689146514,아니오
원죽,Wonjuk,원죽,원죽,3900335,080789,080724,0286,충청남도 보령시 청소면 죽림리 240-2,장항선,36.4669280513167,126.617541741624,아니오
원창,Wonchang,원창,원창,3900712,881918,881801,0489,전라남도 순천시 별량면 봉림리 559,경전선,34.865502642436624,127.44766860572479,아니오
원흥,Wonheung,원흥,원흥,3901025,240038,240038,,경기도 고양시 덕양구 권율대로 681,일산선,37.6509194201895,126.873306794556,아니오
월계,Wolgye,월계,월계,3900394,130193,130193,0841,서울특별시 노원구 월계로53길 40,경원선,37.633286559205715,127.05884916431978,아니오
월곶,Wolgot,월곶,월곶,3900989,100036,100036,,경기도 시흥시 월곶중앙로14번길 56,수인선,37.3918149145414,126.742708747469,아니오
월내,Wollae,월내,월내,3900634,750446,750420,0217,부산광역시 기장군 장안읍 월내리 478-6,동해선,35.3282404272334,129.27683632537665,아니오
월롱,Wollong,월롱,월롱,3900372,110392,110397,0399,경기도 파주시 월롱면 통일로 980,경의선,37.79595361671477,126.79247590469141,아니오
월포,Wolpo,월포,월포,3901065,8B0504,751650,0520,경상북도 포항시 북구 청하면 월포리 404-3,동해선,36.20400676259819,129.3663731466286,아니오
유교,Yugyo,유교,유교,3900143,021141,021038,0622,강원특별자치도 원주시 화실유암길 165-13,중앙선,37.34962456115589,127.99011451060493,예
유수,Yusu,유수,유수,3900700,881116,881019,0483,경상남도 진주시 내동면 유수리 395,경전선,35.1276511135509,128.027460047754,예
율동,Yuldong,율동,율동,3900193,023745,023611,0632,경상북도 경주시 두대길 28-10,중앙선,35.81372153274405,129.1713224721583,예
율촌,Yulchon,율촌,율촌,3900273,041710,041570,0383,전라남도 여수시 율촌면 조화리 888-11,전라선,34.87583506227139,127.57560787618219,아니오
을지로4,Euljiro 4(sa)-ga,을지로4,을지로,3900786,910477,910477,,서울특별시 중구 을지로 지하 178,서울 지하철 2호선,37.5666360374475,126.997852831884,아니오
을지입구,Euljiro 1(il)-ga,을지입구,을지입,3900784,910463,910463,,서울특별시 중구 을지로 지하 42,서울 지하철 2호선,37.5660509048826,126.982372776548,아니오
음성,Eumseong,음성,음성,3900288,050596,050596,0072,충청북도 음성군 음성읍 한불로 60,충북선,36.92596009188563,127.70551103362223,아니오
응봉,Eungbong,응봉,응봉,3900386,130089,130089,0835,서울특별시 성동구 고산자로 123,경원선,37.54998370395667,127.0345125250445,아니오
의성,Uiseong,의성,의성,3900177,022844,022710,0101,경상북도 의성군 의성읍 문소3길 89-8,중앙선,36.35338008176371,128.6932357669771,아니오
의왕,Uiwang,의왕,의왕,3900044,010339,010339,0302,경기도 의왕시 철도박물관로 66,",경부선,남부화물기지",37.31957394991901,126.94790313440234,아니오
의정부,Uijeongbu,의정부,의정부,3900402,130312,130312,0264,경기도 의정부시 평화로 525,",경원선,서울교외",37.73766600449123,127.04605509786148,아니오
이대,Idae,이대,이대,3900780,910428,910428,,서울특별시 마포구 신촌로 지하 180,서울 지하철 2호선,37.556798038756,126.945758661141,아니오
이매,Imae,이매,이매,3900485,230181,230248,,경기도 성남시 분당구 성남대로 지하 738,분당선,37.3956847931015,127.128248334876,아니오
이문,Imun,이문,이문,3900446,160023,160023,0730,서울특별시 동대문구 한천로 472,망우선,37.6037459018607,127.068582323995,아니오
이문차,Imun Depot,이문차,이문차,3900860,1J0020,1J0020,,서울특별시 동대문구 한천로 472,이문기지선,37.6037459018607,127.068582323995,아니오
이양,Iyang,이양,이양,3900722,882544,882427,0055,전라남도 화순군 이양면 이양로 134,경전선,34.89080607317926,126.99003383406966,아니오
이원,Iwon,이원,이원,3900076,011916,011908,0300,충청북도 옥천군 이원면 이원역길 51,경부선,36.24408060037153,127.61927632022154,아니오
이천,Icheon,이천,이천,3900966,250383,250375,,경기도 이천시 이섭대천로 1063,경강선,37.264273959758185,127.44216985299045,아니오
이촌,Ichon,이촌,이촌,3900382,130019,130019,0832,서울특별시 용산구 서빙고로 지하 83,경원선,37.522419675277284,126.97356022136672,아니오
이하,Iha,이하,이하,3900170,022469,022335,0334,경상북도 안동시 와룡면 서주길 237-1,중앙선,36.6120576382799,128.739990779429,예
익산,Iksan,익산,익산,3900211,030879,030879,0030,전북특별자치도 익산시 익산대로 153,",호남선,호남고속선,전라선,장항",35.94117390816197,126.94593298000746,아니오
익산기관,,익산기관,익산기,3900874,A30879,A30879,,전북특별자치도 익산시 익산대로 153,,35.9413753448675,126.946604952741,아니오
익산남연결,Iksan South Connecting Line Junction,익산남연결,익산남,3901029,H20915,H20915,,전북특별자치도 익산시 평화동 320-1,호남고속선,35.925742684642,126.941200259111,아니오
